{
	"type": "FeatureCollection",
    "features": [
{"type":"Feature","geometry":{"type":"Point","coordinates":[-84.28295,30.46454]},"properties":{"Name":"1 Fresh Stirfry","Address":"1820 Monroe St","City":"Tallahassee","State":"Florida","ZipCode":"32303","Country":"USA","EntityType":"Restaurant"}},
{"type":"Feature","geometry":{"type":"Point","coordinates":[-118.68013,34.27172]},"properties":{"Name":"118 Cafe","Address":"5726 Los Angeles Ave","City":"Simi Valley","State":"California","ZipCode":"93063","Country":"USA","EntityType":"Restaurant"}},
{"type":"Feature","geometry":{"type":"Point","coordinates":[-77.04702,38.91087]},"properties":{"Name":"2100 Prime","Address":"2100 Massachusetts Ave","City":"Washington","State":"District of Columbia","ZipCode":"20008","Country":"USA","EntityType":"Restaurant"}},
{"type":"Feature","geometry":{"type":"Point","coordinates":[-73.90918,40.87734]},"properties":{"Name":"228th Meat Market","Address":"151 228th St","City":"New York","State":"New York","ZipCode":"10463","Country":"USA","EntityType":"Grocery Store"}},
{"type":"Feature","geometry":{"type":"Point","coordinates":[-74.0235,40.63473]},"properties":{"Name":"24 Hour Store","Address":"6824 4th Ave","City":"New York","State":"New York","ZipCode":"11220","Country":"USA","EntityType":"Grocery Store"}},
{"type":"Feature","geometry":{"type":"Point","coordinates":[-73.91947,40.72901]},"properties":{"Name":"48th Street Deli","Address":"55-02 48th St","City":"New York","State":"New York","ZipCode":"11378","Country":"USA","EntityType":"Grocery Store"}},
{"type":"Feature","geometry":{"type":"Point","coordinates":[-74.00916,40.72568]},"properties":{"Name":"508","Address":"508 Greenwich St","City":"New York","State":"New York","ZipCode":"10013","Country":"USA","EntityType":"Restaurant"}},
{"type":"Feature","geometry":{"type":"Point","coordinates":[-74.05991,40.75018]},"properties":{"Name":"555 Asian Supermarket","Address":"555 Tonnele Ave","City":"Jersey City","State":"New Jersey","ZipCode":"07307","Country":"USA","EntityType":"Grocery Store"}},
{"type":"Feature","geometry":{"type":"Point","coordinates":[-105.2506,40.01458]},"properties":{"Name":"A Cup Peace","Address":"3216 Arapahoe Ave","City":"Boulder","State":"Colorado","ZipCode":"80303","Country":"USA","EntityType":"Restaurant"}},
{"type":"Feature","geometry":{"type":"Point","coordinates":[-117.04481,33.1407]},"properties":{"Name":"A Place of Our Own CDC","Address":"2355 Valley Pky","City":"Escondido","State":"California","ZipCode":"92027","Country":"USA","EntityType":"School"}},
{"type":"Feature","geometry":{"type":"Point","coordinates":[-85.38401,40.15725]},"properties":{"Name":"A Taste of the South","Address":"4019 Walnut St","City":"Muncie","State":"Indiana","ZipCode":"47302","Country":"USA","EntityType":"Restaurant"}},
{"type":"Feature","geometry":{"type":"Point","coordinates":[-73.95274,40.7106]},"properties":{"Name":"A&R Mini Deli","Address":"356 1st St","City":"New York","State":"New York","ZipCode":"11211","Country":"USA","EntityType":"Grocery Store"}},
{"type":"Feature","geometry":{"type":"Point","coordinates":[-92.12467,43.37114]},"properties":{"Name":"A&W","Address":"628 2nd Ave","City":"Cresco","State":"Iowa","ZipCode":"52136","Country":"USA","EntityType":"Restaurant"}},
{"type":"Feature","geometry":{"type":"Point","coordinates":[-73.89822,40.73974]},"properties":{"Name":"ABC Preschool","Address":"66-20 Laurel Hill Blvd","City":"New York","State":"New York","ZipCode":"11377","Country":"USA","EntityType":"School"}},
{"type":"Feature","geometry":{"type":"Point","coordinates":[-96.70747,40.83661]},"properties":{"Name":"Abelitas Mexican Restaurant","Address":"1000 Saunders Ave","City":"Lincoln","State":"Nebraska","ZipCode":"68521","Country":"USA","EntityType":"Restaurant"}},
{"type":"Feature","geometry":{"type":"Point","coordinates":[-74.30633,40.56596]},"properties":{"Name":"Abhiruchi's Restaurant","Address":"214 Worth St","City":"Woodbridge Twp","State":"New Jersey","ZipCode":"08830","Country":"USA","EntityType":"Restaurant"}},
{"type":"Feature","geometry":{"type":"Point","coordinates":[-83.74343,33.79019]},"properties":{"Name":"Abstract Burger Company","Address":"500 Great Oaks Dr","City":"Uninc Walton County","State":"Georgia","ZipCode":"30655","Country":"USA","EntityType":"Restaurant"}},
{"type":"Feature","geometry":{"type":"Point","coordinates":[-82.95169,40.07707]},"properties":{"Name":"Accra Africa International","Address":"5266 Cleveland Ave","City":"Minerva Park","State":"Ohio","ZipCode":"43231","Country":"USA","EntityType":"Grocery Store"}},
{"type":"Feature","geometry":{"type":"Point","coordinates":[-73.90848,40.85388]},"properties":{"Name":"Accra Restaurant","Address":"2041 Davidson Ave","City":"New York","State":"New York","ZipCode":"10453","Country":"USA","EntityType":"Restaurant"}},
{"type":"Feature","geometry":{"type":"Point","coordinates":[-99.29818,39.23439]},"properties":{"Name":"Aces & Eights","Address":"105 Mill St","City":"Plainville","State":"Kansas","ZipCode":"67663","Country":"USA","EntityType":"Restaurant"}},
{"type":"Feature","geometry":{"type":"Point","coordinates":[-81.97928,41.3834]},"properties":{"Name":"Aces Bar & Grille","Address":"32650 Lorain Rd","City":"North Ridgeville","State":"Ohio","ZipCode":"44039","Country":"USA","EntityType":"Restaurant"}},
{"type":"Feature","geometry":{"type":"Point","coordinates":[-97.53495,37.77913]},"properties":{"Name":"AG Kraus","Address":"201 Chicago Ave","City":"Colwich","State":"Kansas","ZipCode":"67030","Country":"USA","EntityType":"Grocery Store"}},
{"type":"Feature","geometry":{"type":"Point","coordinates":[-74.46119,39.49488]},"properties":{"Name":"AJ 's on the Lake","Address":"615 Moss Mill Rd","City":"Galloway Twp","State":"New Jersey","ZipCode":"08205","Country":"USA","EntityType":"Restaurant"}},
{"type":"Feature","geometry":{"type":"Point","coordinates":[-112.85902,32.37265]},"properties":{"Name":"Ajo Elementary School","Address":"111 Well Rd","City":"Uninc Pima County","State":"Arizona","ZipCode":"85321","Country":"USA","EntityType":"School"}},
{"type":"Feature","geometry":{"type":"Point","coordinates":[-112.85902,32.37265]},"properties":{"Name":"Ajo Middle School","Address":"111 Well Rd","City":"Uninc Pima County","State":"Arizona","ZipCode":"85321","Country":"USA","EntityType":"School"}},
{"type":"Feature","geometry":{"type":"Point","coordinates":[-74.51146,39.40419]},"properties":{"Name":"AJ's Food Market","Address":"901 Main St","City":"Pleasantville","State":"New Jersey","ZipCode":"08232","Country":"USA","EntityType":"Grocery Store"}},
{"type":"Feature","geometry":{"type":"Point","coordinates":[-118.55619,34.46242]},"properties":{"Name":"Albertsons","Address":"23850 Tesoro Vlg","City":"Uninc Los Angeles County","State":"California","ZipCode":"91354","Country":"USA","EntityType":"Grocery Store"}},
{"type":"Feature","geometry":{"type":"Point","coordinates":[-111.97779,33.58335]},"properties":{"Name":"Albertsons","Address":"10665 Tatum Blvd","City":"Phoenix","State":"Arizona","ZipCode":"85028","Country":"USA","EntityType":"Grocery Store"}},
{"type":"Feature","geometry":{"type":"Point","coordinates":[-73.99287,41.12064]},"properties":{"Name":"Albertus Magnus High School","Address":"798 RT-304 Ave","City":"Clarkstown, Town of","State":"New York","ZipCode":"10954","Country":"USA","EntityType":"School"}},
{"type":"Feature","geometry":{"type":"Point","coordinates":[-71.50037,41.68245]},"properties":{"Name":"ALDI","Address":"444 Quaker Ln","City":"Warwick","State":"Rhode Island","ZipCode":"02886","Country":"USA","EntityType":"Grocery Store"}},
{"type":"Feature","geometry":{"type":"Point","coordinates":[-87.88996,41.90755]},"properties":{"Name":"Alejandra's Mexican Cuisine","Address":"400 North Ave","City":"Northlake","State":"Illinois","ZipCode":"60164","Country":"USA","EntityType":"Restaurant"}},
{"type":"Feature","geometry":{"type":"Point","coordinates":[-101.85536,33.56896]},"properties":{"Name":"Alex's Drive in","Address":"2802 Avenue Q St","City":"Lubbock","State":"Texas","ZipCode":"79411","Country":"USA","EntityType":"Restaurant"}},
{"type":"Feature","geometry":{"type":"Point","coordinates":[-77.92088,34.28718]},"properties":{"Name":"Alfies","Address":"2528 Castle Hayne Rd","City":"Uninc New Hanover County","State":"North Carolina","ZipCode":"28401","Country":"USA","EntityType":"Restaurant"}},
{"type":"Feature","geometry":{"type":"Point","coordinates":[-74.03984,41.12766]},"properties":{"Name":"Alfonso Restaurant","Address":"66 Eckerson Rd","City":"Ramapo, Town of","State":"New York","ZipCode":"10977","Country":"USA","EntityType":"Restaurant"}},
{"type":"Feature","geometry":{"type":"Point","coordinates":[-80.37087,27.30833]},"properties":{"Name":"Alfonso's Pizza","Address":"986 Bayshore Blvd","City":"Port St Lucie","State":"Florida","ZipCode":"34983","Country":"USA","EntityType":"Restaurant"}},
{"type":"Feature","geometry":{"type":"Point","coordinates":[-118.79621,34.26628]},"properties":{"Name":"Ali Baba Restaurant","Address":"1464 Madera Rd","City":"Simi Valley","State":"California","ZipCode":"93065","Country":"USA","EntityType":"Restaurant"}},
{"type":"Feature","geometry":{"type":"Point","coordinates":[-74.21883,40.81531]},"properties":{"Name":"All American & Italian Grill","Address":"7 Park St","City":"Montclair Twp","State":"New Jersey","ZipCode":"07042","Country":"USA","EntityType":"Restaurant"}},
{"type":"Feature","geometry":{"type":"Point","coordinates":[-76.71719,40.23191]},"properties":{"Name":"Allegheny Valley School","Address":"1291 Middletown Rd","City":"Derry Twp","State":"Pennsylvania","ZipCode":"17036","Country":"USA","EntityType":"School"}},
{"type":"Feature","geometry":{"type":"Point","coordinates":[-105.57481,36.40756]},"properties":{"Name":"Alley Cantina","Address":"121 Teresina Ln","City":"Taos","State":"New Mexico","ZipCode":"87571","Country":"USA","EntityType":"Restaurant"}},
{"type":"Feature","geometry":{"type":"Point","coordinates":[-118.37426,34.07311]},"properties":{"Name":"Allora Cucina Italiana","Address":"8432 3rd St","City":"Los Angeles","State":"California","ZipCode":"90048","Country":"USA","EntityType":"Restaurant"}},
{"type":"Feature","geometry":{"type":"Point","coordinates":[-73.98864,40.74025]},"properties":{"Name":"Almond","Address":"12 22nd St","City":"New York","State":"New York","ZipCode":"10010","Country":"USA","EntityType":"Restaurant"}},
{"type":"Feature","geometry":{"type":"Point","coordinates":[-117.8287,33.70015]},"properties":{"Name":"Aloha Hawaiian BBQ","Address":"2336 Park Ave","City":"Tustin","State":"California","ZipCode":"92782","Country":"USA","EntityType":"Restaurant"}},
{"type":"Feature","geometry":{"type":"Point","coordinates":[-93.23314,44.94778]},"properties":{"Name":"Alqudus Hala Meat & Grocery","Address":"3015 27th Ave","City":"Minneapolis","State":"Minnesota","ZipCode":"55406","Country":"USA","EntityType":"Grocery Store"}},
{"type":"Feature","geometry":{"type":"Point","coordinates":[-98.48562,43.70837]},"properties":{"Name":"Al's I 90 Cafe","Address":"701 Main St","City":"Plankinton","State":"South Dakota","ZipCode":"57368","Country":"USA","EntityType":"Restaurant"}},
{"type":"Feature","geometry":{"type":"Point","coordinates":[-105.16208,40.14354]},"properties":{"Name":"Altona Middle School","Address":"4600 Clover Basin Dr","City":"Longmont","State":"Colorado","ZipCode":"80503","Country":"USA","EntityType":"School"}},
{"type":"Feature","geometry":{"type":"Point","coordinates":[-111.59797,33.4157]},"properties":{"Name":"Amados Mexican Food","Address":"21 Signal Butte Rd","City":"Uninc Maricopa County","State":"Arizona","ZipCode":"85120","Country":"USA","EntityType":"Restaurant"}},
{"type":"Feature","geometry":{"type":"Point","coordinates":[-91.47383,43.26261]},"properties":{"Name":"Amarillo's Roadhouse Grill","Address":"609 Rossville Rd","City":"Waukon","State":"Iowa","ZipCode":"52172","Country":"USA","EntityType":"Restaurant"}},
{"type":"Feature","geometry":{"type":"Point","coordinates":[-68.77908,44.82318]},"properties":{"Name":"Amato's","Address":"657 Broadway St","City":"Bangor","State":"Maine","ZipCode":"04401","Country":"USA","EntityType":"Restaurant"}},
{"type":"Feature","geometry":{"type":"Point","coordinates":[-73.9032,40.8225]},"properties":{"Name":"Ambm Deli Grocery","Address":"928 Tinton Ave","City":"New York","State":"New York","ZipCode":"10456","Country":"USA","EntityType":"Grocery Store"}},
{"type":"Feature","geometry":{"type":"Point","coordinates":[-88.32443,41.79769]},"properties":{"Name":"American Dreams Lounge","Address":"207 Lincolnway Ln","City":"North Aurora","State":"Illinois","ZipCode":"60542","Country":"USA","EntityType":"Restaurant"}},
{"type":"Feature","geometry":{"type":"Point","coordinates":[-80.18907,26.31743]},"properties":{"Name":"Amici's Pizza & Cafe","Address":"4800 Hillsboro Blvd","City":"Coconut Creek","State":"Florida","ZipCode":"33073","Country":"USA","EntityType":"Restaurant"}},
{"type":"Feature","geometry":{"type":"Point","coordinates":[-76.17664,40.03849]},"properties":{"Name":"Amish Country Motel","Address":"2740 Old Philadelphia Pike","City":"Leacock Twp","State":"Pennsylvania","ZipCode":"17505","Country":"USA","EntityType":"Restaurant"}},
{"type":"Feature","geometry":{"type":"Point","coordinates":[-118.02858,33.91702]},"properties":{"Name":"Amy's Cafe","Address":"14228 Imperial Hwy","City":"La Mirada","State":"California","ZipCode":"90638","Country":"USA","EntityType":"Restaurant"}},
{"type":"Feature","geometry":{"type":"Point","coordinates":[-95.77343,40.23023]},"properties":{"Name":"Anderson One Stop Shop","Address":"202 Main St","City":"Stella","State":"Nebraska","ZipCode":"68442","Country":"USA","EntityType":"Grocery Store"}},
{"type":"Feature","geometry":{"type":"Point","coordinates":[-117.37935,34.10672]},"properties":{"Name":"Andy's Market","Address":"509 Foothill Blvd","City":"Rialto","State":"California","ZipCode":"92376","Country":"USA","EntityType":"Grocery Store"}},
{"type":"Feature","geometry":{"type":"Point","coordinates":[-122.84603,38.42034]},"properties":{"Name":"Andy's Produce Retail","Address":"1691 Gravenstein Hwy","City":"Uninc Sonoma County","State":"California","ZipCode":"95472","Country":"USA","EntityType":"Grocery Store"}},
{"type":"Feature","geometry":{"type":"Point","coordinates":[-92.83617,33.57216]},"properties":{"Name":"Andy's Restaurant","Address":"715 California Ave","City":"Camden","State":"Arkansas","ZipCode":"71701","Country":"USA","EntityType":"Restaurant"}},
{"type":"Feature","geometry":{"type":"Point","coordinates":[-92.85227,33.56008]},"properties":{"Name":"Andy's Restaurant","Address":"1245 California Ave","City":"Camden","State":"Arkansas","ZipCode":"71701","Country":"USA","EntityType":"School"}},
{"type":"Feature","geometry":{"type":"Point","coordinates":[-115.04654,36.15938]},"properties":{"Name":"Angelina's Pizzeria","Address":"5821 Charleston Blvd","City":"Uninc Clark County","State":"Nevada","ZipCode":"89142","Country":"USA","EntityType":"Restaurant"}},
{"type":"Feature","geometry":{"type":"Point","coordinates":[-96.83147,32.99743]},"properties":{"Name":"Angelo & Vito's Pizzeria","Address":"4520 Frankford Rd","City":"Dallas","State":"Texas","ZipCode":"75287","Country":"USA","EntityType":"Restaurant"}},
{"type":"Feature","geometry":{"type":"Point","coordinates":[-78.85148,35.73088]},"properties":{"Name":"Anna's Pizzeria","Address":"100 Salem St","City":"Apex","State":"North Carolina","ZipCode":"27502","Country":"USA","EntityType":"Restaurant"}},
{"type":"Feature","geometry":{"type":"Point","coordinates":[-73.86284,40.75022]},"properties":{"Name":"Anojitos Dominicanos","Address":"39-17 103rd St","City":"New York","State":"New York","ZipCode":"11368","Country":"USA","EntityType":"Restaurant"}},
{"type":"Feature","geometry":{"type":"Point","coordinates":[-73.72941,40.66349]},"properties":{"Name":"Anthony Adame's Grocery Deli","Address":"250-13 Hook Creek Blvd","City":"New York","State":"New York","ZipCode":"11422","Country":"USA","EntityType":"Grocery Store"}},
{"type":"Feature","geometry":{"type":"Point","coordinates":[-80.09948,26.84194]},"properties":{"Name":"Antonio's Pizza & Pasta","Address":"4150 PGA Blvd","City":"Palm Beach Gardens","State":"Florida","ZipCode":"33410","Country":"USA","EntityType":"Restaurant"}},
{"type":"Feature","geometry":{"type":"Point","coordinates":[-87.99784,41.75127]},"properties":{"Name":"Aodake Sushi & Steak House","Address":"2129 75th St","City":"Uninc DuPage County","State":"Illinois","ZipCode":"60561","Country":"USA","EntityType":"Restaurant"}},
{"type":"Feature","geometry":{"type":"Point","coordinates":[-84.98467,30.43168]},"properties":{"Name":"Apalachee Restaurant","Address":"10536 State Road 20 St","City":"Bristol","State":"Florida","ZipCode":"32321","Country":"USA","EntityType":"Restaurant"}},
{"type":"Feature","geometry":{"type":"Point","coordinates":[-112.2972,40.55678]},"properties":{"Name":"Apollo Burgers","Address":"1288 Main St","City":"Tooele","State":"Utah","ZipCode":"84074","Country":"USA","EntityType":"Restaurant"}},
{"type":"Feature","geometry":{"type":"Point","coordinates":[-79.5595,40.58347]},"properties":{"Name":"Apollo Elementary School","Address":"616 1st St","City":"Apollo","State":"Pennsylvania","ZipCode":"15613","Country":"USA","EntityType":"School"}},
{"type":"Feature","geometry":{"type":"Point","coordinates":[-79.47465,40.60852]},"properties":{"Name":"Apollo-Ridge High School","Address":"1825 PA-56 Ave","City":"Kiskiminetas Twp","State":"Pennsylvania","ZipCode":"15686","Country":"USA","EntityType":"School"}},
{"type":"Feature","geometry":{"type":"Point","coordinates":[-79.47453,40.60849]},"properties":{"Name":"Apollo-Ridge Middle School","Address":"1829 PA-56 Ave","City":"Kiskiminetas Twp","State":"Pennsylvania","ZipCode":"15686","Country":"USA","EntityType":"School"}},
{"type":"Feature","geometry":{"type":"Point","coordinates":[-82.92194,38.75465]},"properties":{"Name":"Applebee's","Address":"4610 Gallia St","City":"New Boston","State":"Ohio","ZipCode":"45662","Country":"USA","EntityType":"Restaurant"}},
{"type":"Feature","geometry":{"type":"Point","coordinates":[-110.25848,31.53193]},"properties":{"Name":"Applebee's","Address":"3899 El Mercado Loop","City":"Sierra Vista","State":"Arizona","ZipCode":"85635","Country":"USA","EntityType":"Restaurant"}},
{"type":"Feature","geometry":{"type":"Point","coordinates":[-88.24918,40.06906]},"properties":{"Name":"Applebee's","Address":"1201 Dunlap Ave","City":"Savoy","State":"Illinois","ZipCode":"61874","Country":"USA","EntityType":"Restaurant"}},
{"type":"Feature","geometry":{"type":"Point","coordinates":[-77.50357,38.2329]},"properties":{"Name":"Applebee's","Address":"9901 Southpoint Pky","City":"Uninc Spotsylvania County","State":"Virginia","ZipCode":"22407","Country":"USA","EntityType":"Restaurant"}},
{"type":"Feature","geometry":{"type":"Point","coordinates":[-79.75264,39.91558]},"properties":{"Name":"Applebee's","Address":"102 Walmart Dr","City":"South Union Twp","State":"Pennsylvania","ZipCode":"15401","Country":"USA","EntityType":"Restaurant"}},
{"type":"Feature","geometry":{"type":"Point","coordinates":[-95.62871,30.07747]},"properties":{"Name":"Applebee's","Address":"27727 Tomball Pky","City":"Uninc Harris County","State":"Texas","ZipCode":"77375","Country":"USA","EntityType":"Restaurant"}},
{"type":"Feature","geometry":{"type":"Point","coordinates":[-75.74692,39.45419]},"properties":{"Name":"Appoquinimink High School","Address":"115 School Dr","City":"Middletown","State":"Delaware","ZipCode":"19709","Country":"USA","EntityType":"School"}},
{"type":"Feature","geometry":{"type":"Point","coordinates":[-77.19233,38.82962]},"properties":{"Name":"Ara Fusion Restaurant","Address":"7137 Little River Tpke","City":"Uninc Fairfax County","State":"Virginia","ZipCode":"22003","Country":"USA","EntityType":"Restaurant"}},
{"type":"Feature","geometry":{"type":"Point","coordinates":[-84.23502,33.50477]},"properties":{"Name":"Arby's","Address":"1460 Hudson Bridge Rd","City":"Uninc Henry County","State":"Georgia","ZipCode":"30281","Country":"USA","EntityType":"Restaurant"}},
{"type":"Feature","geometry":{"type":"Point","coordinates":[-90.715,35.55914]},"properties":{"Name":"Arby's","Address":"605 Hill Rd","City":"Harrisburg","State":"Arkansas","ZipCode":"72432","Country":"USA","EntityType":"Restaurant"}},
{"type":"Feature","geometry":{"type":"Point","coordinates":[-84.59071,34.00093]},"properties":{"Name":"Arby's","Address":"1911 Vaughn Rd","City":"Uninc Cobb County","State":"Georgia","ZipCode":"30144","Country":"USA","EntityType":"Restaurant"}},
{"type":"Feature","geometry":{"type":"Point","coordinates":[-81.4593,30.28756]},"properties":{"Name":"Arby's","Address":"13696 Beach Blvd","City":"Jacksonville","State":"Florida","ZipCode":"32224","Country":"USA","EntityType":"Restaurant"}},
{"type":"Feature","geometry":{"type":"Point","coordinates":[-81.29297,41.68493]},"properties":{"Name":"Arby's","Address":"2219 Mentor Ave","City":"Uninc Lake County","State":"Ohio","ZipCode":"44077","Country":"USA","EntityType":"Restaurant"}},
{"type":"Feature","geometry":{"type":"Point","coordinates":[-85.0732,33.55371]},"properties":{"Name":"Arby's","Address":"1322 Park St","City":"Carrollton","State":"Georgia","ZipCode":"30117","Country":"USA","EntityType":"Restaurant"}},
{"type":"Feature","geometry":{"type":"Point","coordinates":[-78.96232,34.98137]},"properties":{"Name":"Arby's","Address":"3070 Main St","City":"Hope Mills","State":"North Carolina","ZipCode":"28348","Country":"USA","EntityType":"Restaurant"}},
{"type":"Feature","geometry":{"type":"Point","coordinates":[-111.72853,40.3492]},"properties":{"Name":"Arby's","Address":"593 State St","City":"Lindon","State":"Utah","ZipCode":"84042","Country":"USA","EntityType":"Restaurant"}},
{"type":"Feature","geometry":{"type":"Point","coordinates":[-88.51522,34.92108]},"properties":{"Name":"Arby's","Address":"706 Highway 72 Rd","City":"Corinth","State":"Mississippi","ZipCode":"38834","Country":"USA","EntityType":"Restaurant"}},
{"type":"Feature","geometry":{"type":"Point","coordinates":[-79.9667,36.03318]},"properties":{"Name":"Arby's","Address":"4053 River Pointe Pl","City":"High Point","State":"North Carolina","ZipCode":"27265","Country":"USA","EntityType":"Restaurant"}},
{"type":"Feature","geometry":{"type":"Point","coordinates":[-82.95583,32.54204]},"properties":{"Name":"Arby's","Address":"2109 Veterans Blvd","City":"Dublin","State":"Georgia","ZipCode":"31021","Country":"USA","EntityType":"Restaurant"}},
{"type":"Feature","geometry":{"type":"Point","coordinates":[-87.57424,38.01112]},"properties":{"Name":"Arby's","Address":"3600 1st Ave","City":"Evansville","State":"Indiana","ZipCode":"47710","Country":"USA","EntityType":"Restaurant"}},
{"type":"Feature","geometry":{"type":"Point","coordinates":[-88.53217,37.74931]},"properties":{"Name":"Arby's","Address":"5 Small St","City":"Uninc Saline County","State":"Illinois","ZipCode":"62946","Country":"USA","EntityType":"Restaurant"}},
{"type":"Feature","geometry":{"type":"Point","coordinates":[-88.46932,44.27302]},"properties":{"Name":"Arby's","Address":"4301 Wisconsin Ave","City":"Grand Chute, Town of","State":"Wisconsin","ZipCode":"54913","Country":"USA","EntityType":"Restaurant"}},
{"type":"Feature","geometry":{"type":"Point","coordinates":[-77.8925,34.14662]},"properties":{"Name":"Arby's","Address":"5108 College Rd","City":"Uninc New Hanover County","State":"North Carolina","ZipCode":"28412","Country":"USA","EntityType":"Restaurant"}},
{"type":"Feature","geometry":{"type":"Point","coordinates":[-75.09038,39.89216]},"properties":{"Name":"Arby's","Address":"100 Black Horse Pike","City":"Audubon","State":"New Jersey","ZipCode":"08106","Country":"USA","EntityType":"Restaurant"}},
{"type":"Feature","geometry":{"type":"Point","coordinates":[-76.24879,39.4777]},"properties":{"Name":"Arby's","Address":"1323 Policy Dr","City":"Uninc Harford County","State":"Maryland","ZipCode":"21017","Country":"USA","EntityType":"Restaurant"}},
{"type":"Feature","geometry":{"type":"Point","coordinates":[-72.75414,41.6272]},"properties":{"Name":"Arby's","Address":"1241 Farmington Ave","City":"Berlin, Town of","State":"Connecticut","ZipCode":"06037","Country":"USA","EntityType":"Restaurant"}},
{"type":"Feature","geometry":{"type":"Point","coordinates":[-96.33403,42.47559]},"properties":{"Name":"Arby's","Address":"5800 Gordon Dr","City":"Sioux City","State":"Iowa","ZipCode":"51106","Country":"USA","EntityType":"Restaurant"}},
{"type":"Feature","geometry":{"type":"Point","coordinates":[-85.14685,41.07501]},"properties":{"Name":"Arby's","Address":"610 Jefferson Blvd","City":"Fort Wayne","State":"Indiana","ZipCode":"46802","Country":"USA","EntityType":"Restaurant"}},
{"type":"Feature","geometry":{"type":"Point","coordinates":[-76.56926,40.3203]},"properties":{"Name":"Arby's","Address":"91 Londonderry Sq","City":"North Londonderry Twp","State":"Pennsylvania","ZipCode":"17078","Country":"USA","EntityType":"Restaurant"}},
{"type":"Feature","geometry":{"type":"Point","coordinates":[-76.94444,39.40224]},"properties":{"Name":"Arby's","Address":"1438 Liberty Rd","City":"Uninc Carroll County","State":"Maryland","ZipCode":"21784","Country":"USA","EntityType":"Restaurant"}},
{"type":"Feature","geometry":{"type":"Point","coordinates":[-84.22064,33.46444]},"properties":{"Name":"Arby's","Address":"1963 Jonesboro Rd","City":"Uninc Henry County","State":"Georgia","ZipCode":"30253","Country":"USA","EntityType":"Restaurant"}},
{"type":"Feature","geometry":{"type":"Point","coordinates":[-74.17276,40.73771]},"properties":{"Name":"Ark Gourmet Deli","Address":"138 Halsey St","City":"Newark","State":"New Jersey","ZipCode":"07102","Country":"USA","EntityType":"Restaurant"}},
{"type":"Feature","geometry":{"type":"Point","coordinates":[-85.27898,35.13825]},"properties":{"Name":"Armando's Restaurant","Address":"4825 Dayton Blvd","City":"Red Bank","State":"Tennessee","ZipCode":"37415","Country":"USA","EntityType":"Restaurant"}},
{"type":"Feature","geometry":{"type":"Point","coordinates":[-74.3672,39.97612]},"properties":{"Name":"AS We Grow Child Care Pre School","Address":"661 Manchester Blvd","City":"Manchester Twp","State":"New Jersey","ZipCode":"08759","Country":"USA","EntityType":"School"}},
{"type":"Feature","geometry":{"type":"Point","coordinates":[-83.93317,39.68576]},"properties":{"Name":"Asian Buffet","Address":"68 Xenia Towne Sq","City":"Xenia","State":"Ohio","ZipCode":"45385","Country":"USA","EntityType":"Restaurant"}},
{"type":"Feature","geometry":{"type":"Point","coordinates":[-84.54491,42.67086]},"properties":{"Name":"Asian Express Restaurant","Address":"5920 Cedar St","City":"Lansing","State":"Michigan","ZipCode":"48911","Country":"USA","EntityType":"Restaurant"}},
{"type":"Feature","geometry":{"type":"Point","coordinates":[-122.21734,37.487]},"properties":{"Name":"Asian Garden","Address":"1483 Broadway Blvd","City":"Redwood City","State":"California","ZipCode":"94063","Country":"USA","EntityType":"Restaurant"}},
{"type":"Feature","geometry":{"type":"Point","coordinates":[-80.72896,35.27444]},"properties":{"Name":"Asian Garden","Address":"2925 WT Harris Blvd","City":"Charlotte","State":"North Carolina","ZipCode":"28213","Country":"USA","EntityType":"Restaurant"}},
{"type":"Feature","geometry":{"type":"Point","coordinates":[-77.53647,38.98668]},"properties":{"Name":"Asian Spice Cafe","Address":"42395 Ryan Rd","City":"Uninc Loudoun County","State":"Virginia","ZipCode":"20148","Country":"USA","EntityType":"Restaurant"}},
{"type":"Feature","geometry":{"type":"Point","coordinates":[-73.2114,44.48048]},"properties":{"Name":"Asiana House","Address":"191 Pearl St","City":"Burlington","State":"Vermont","ZipCode":"05401","Country":"USA","EntityType":"Restaurant"}},
{"type":"Feature","geometry":{"type":"Point","coordinates":[-77.46025,37.55655]},"properties":{"Name":"Assante's Pizza","Address":"1845 Broad St","City":"Richmond","State":"Virginia","ZipCode":"23220","Country":"USA","EntityType":"Restaurant"}},
{"type":"Feature","geometry":{"type":"Point","coordinates":[-84.7742,34.03715]},"properties":{"Name":"Atami Steak & Sushi","Address":"2538 Cedarcrest Rd","City":"Uninc Paulding County","State":"Georgia","ZipCode":"30101","Country":"USA","EntityType":"Restaurant"}},
{"type":"Feature","geometry":{"type":"Point","coordinates":[-112.07378,33.45886]},"properties":{"Name":"Athen's Greek Cafe","Address":"1001 Central Ave","City":"Phoenix","State":"Arizona","ZipCode":"85004","Country":"USA","EntityType":"Restaurant"}},
{"type":"Feature","geometry":{"type":"Point","coordinates":[-77.42261,39.02354]},"properties":{"Name":"Atlanta Bread Co","Address":"45633 Dulles Eastern Plz","City":"Uninc Loudoun County","State":"Virginia","ZipCode":"20166","Country":"USA","EntityType":"Restaurant"}},
{"type":"Feature","geometry":{"type":"Point","coordinates":[-87.92876,42.98915]},"properties":{"Name":"Attari Supermarket","Address":"3042 13th St","City":"Milwaukee","State":"Wisconsin","ZipCode":"53215","Country":"USA","EntityType":"Grocery Store"}},
{"type":"Feature","geometry":{"type":"Point","coordinates":[-72.74084,41.76094]},"properties":{"Name":"Au Bon Pain","Address":"51 Isham Rd","City":"West Hartford, Town of","State":"Connecticut","ZipCode":"06107","Country":"USA","EntityType":"Restaurant"}},
{"type":"Feature","geometry":{"type":"Point","coordinates":[-87.39659,46.54373]},"properties":{"Name":"Aubree's Pizza & Tavern","Address":"227 Washington St","City":"Marquette","State":"Michigan","ZipCode":"49855","Country":"USA","EntityType":"Restaurant"}},
{"type":"Feature","geometry":{"type":"Point","coordinates":[-75.87379,39.82264]},"properties":{"Name":"Aurora Pizzeria & Pasta Kitchen","Address":"27 Jenners Village Ctr","City":"Penn Twp","State":"Pennsylvania","ZipCode":"19390","Country":"USA","EntityType":"Restaurant"}},
{"type":"Feature","geometry":{"type":"Point","coordinates":[-117.27574,34.13589]},"properties":{"Name":"Ava's Cafe","Address":"399 Highland Ave","City":"San Bernardino","State":"California","ZipCode":"92404","Country":"USA","EntityType":"Restaurant"}},
{"type":"Feature","geometry":{"type":"Point","coordinates":[-90.50518,44.00823]},"properties":{"Name":"Away To Learn Children's Center","Address":"1400 Superior Ave","City":"Tomah","State":"Wisconsin","ZipCode":"54660","Country":"USA","EntityType":"School"}},
{"type":"Feature","geometry":{"type":"Point","coordinates":[-80.12811,26.31603]},"properties":{"Name":"Ay Caramba","Address":"100 Military Trl","City":"Deerfield Beach","State":"Florida","ZipCode":"33442","Country":"USA","EntityType":"Restaurant"}},
{"type":"Feature","geometry":{"type":"Point","coordinates":[-94.52926,39.11284]},"properties":{"Name":"Aza Grocery","Address":"4422 St John Ave","City":"Kansas City","State":"Missouri","ZipCode":"64123","Country":"USA","EntityType":"Grocery Store"}},
{"type":"Feature","geometry":{"type":"Point","coordinates":[-97.74843,30.21227]},"properties":{"Name":"B&D Catering","Address":"1821 Directors Blvd","City":"Austin","State":"Texas","ZipCode":"78744","Country":"USA","EntityType":"Restaurant"}},
{"type":"Feature","geometry":{"type":"Point","coordinates":[-74.96295,39.71304]},"properties":{"Name":"Baba Food Market","Address":"250 Sicklerville Rd","City":"Winslow Twp","State":"New Jersey","ZipCode":"08081","Country":"USA","EntityType":"Grocery Store"}},
{"type":"Feature","geometry":{"type":"Point","coordinates":[-111.83385,31.82435]},"properties":{"Name":"Baboquivari High School","Address":"2930 BIA-19 Ave","City":"Uninc Pima County","State":"Arizona","ZipCode":"85639","Country":"USA","EntityType":"School"}},
{"type":"Feature","geometry":{"type":"Point","coordinates":[-111.86068,31.91587]},"properties":{"Name":"Baboquivari Middle School","Address":"1200 AZ-86 Blvd","City":"Uninc Pima County","State":"Arizona","ZipCode":"85634","Country":"USA","EntityType":"School"}},
{"type":"Feature","geometry":{"type":"Point","coordinates":[-111.87565,31.91354]},"properties":{"Name":"Baboquivari Primary School","Address":"2500  St","City":"Uninc Pima County","State":"Arizona","ZipCode":"85634","Country":"USA","EntityType":"School"}},
{"type":"Feature","geometry":{"type":"Point","coordinates":[-89.8712,31.59139]},"properties":{"Name":"Back Yard Chicken","Address":"1142 St Stephens Rd","City":"Prentiss","State":"Mississippi","ZipCode":"39474","Country":"USA","EntityType":"Restaurant"}},
{"type":"Feature","geometry":{"type":"Point","coordinates":[-74.29664,41.61253]},"properties":{"Name":"Bagel Cafe","Address":"42 Orchard St","City":"Crawford, Town of","State":"New York","ZipCode":"12566","Country":"USA","EntityType":"Restaurant"}},
{"type":"Feature","geometry":{"type":"Point","coordinates":[-73.07606,41.58489]},"properties":{"Name":"Bagel Station","Address":"1650 Watertown Ave","City":"Waterbury","State":"Connecticut","ZipCode":"06708","Country":"USA","EntityType":"Restaurant"}},
{"type":"Feature","geometry":{"type":"Point","coordinates":[-81.25373,32.1335]},"properties":{"Name":"Bahama Bob's","Address":"111 Canal St","City":"Pooler","State":"Georgia","ZipCode":"31322","Country":"USA","EntityType":"Restaurant"}},
{"type":"Feature","geometry":{"type":"Point","coordinates":[-84.17732,37.9927]},"properties":{"Name":"Bailey's Cafe","Address":"39 Main St","City":"Winchester","State":"Kentucky","ZipCode":"40391","Country":"USA","EntityType":"Restaurant"}},
{"type":"Feature","geometry":{"type":"Point","coordinates":[-113.5345,37.123]},"properties":{"Name":"Bajio at Pineview Plaza","Address":"2376 Red Cliffs Dr","City":"St George","State":"Utah","ZipCode":"84790","Country":"USA","EntityType":"Restaurant"}},
{"type":"Feature","geometry":{"type":"Point","coordinates":[-117.3346,34.47051]},"properties":{"Name":"Baker's Burger","Address":"15083 Bear Valley Rd","City":"Hesperia","State":"California","ZipCode":"92345","Country":"USA","EntityType":"Restaurant"}},
{"type":"Feature","geometry":{"type":"Point","coordinates":[-104.60927,38.93876]},"properties":{"Name":"Bamboo Garden Restaurant","Address":"11605 Meridian Market Vw","City":"Uninc El Paso County","State":"Colorado","ZipCode":"80831","Country":"USA","EntityType":"Restaurant"}},
{"type":"Feature","geometry":{"type":"Point","coordinates":[-117.16104,32.71408]},"properties":{"Name":"Bandar","Address":"845 4th Ave","City":"San Diego","State":"California","ZipCode":"92101","Country":"USA","EntityType":"Restaurant"}},
{"type":"Feature","geometry":{"type":"Point","coordinates":[-73.89469,40.75071]},"properties":{"Name":"Bangladesh Fish Market","Address":"71-16 35th Ave","City":"New York","State":"New York","ZipCode":"11372","Country":"USA","EntityType":"Grocery Store"}},
{"type":"Feature","geometry":{"type":"Point","coordinates":[-81.70399,41.48491]},"properties":{"Name":"Bar Cento","Address":"1948 25th St","City":"Cleveland","State":"Ohio","ZipCode":"44113","Country":"USA","EntityType":"Restaurant"}},
{"type":"Feature","geometry":{"type":"Point","coordinates":[-86.18777,41.71943]},"properties":{"Name":"Bar Louie","Address":"6501 Grape Rd","City":"Mishawaka","State":"Indiana","ZipCode":"46545","Country":"USA","EntityType":"Restaurant"}},
{"type":"Feature","geometry":{"type":"Point","coordinates":[-73.8645,40.87141]},"properties":{"Name":"Barry's Jerk Delight","Address":"769 Burke Ave","City":"New York","State":"New York","ZipCode":"10467","Country":"USA","EntityType":"Restaurant"}},
{"type":"Feature","geometry":{"type":"Point","coordinates":[-75.30876,40.06889]},"properties":{"Name":"Barson's Deli","Address":"300 Barr Harbor Dr","City":"West Conshohocken","State":"Pennsylvania","ZipCode":"19428","Country":"USA","EntityType":"Restaurant"}},
{"type":"Feature","geometry":{"type":"Point","coordinates":[-81.65476,30.31603]},"properties":{"Name":"Basil Thai & Sushi","Address":"1004 Hendricks Ave","City":"Jacksonville","State":"Florida","ZipCode":"32207","Country":"USA","EntityType":"Restaurant"}},
{"type":"Feature","geometry":{"type":"Point","coordinates":[-74.12549,39.96785]},"properties":{"Name":"Basket Bonanza","Address":"1005 Midwood Dr","City":"Toms River Twp","State":"New Jersey","ZipCode":"08753","Country":"USA","EntityType":"Grocery Store"}},
{"type":"Feature","geometry":{"type":"Point","coordinates":[-83.90557,35.93425]},"properties":{"Name":"Baskin-Robbins","Address":"4403 Chapman Hwy","City":"Knoxville","State":"Tennessee","ZipCode":"37920","Country":"USA","EntityType":"Restaurant"}},
{"type":"Feature","geometry":{"type":"Point","coordinates":[-117.18092,32.81958]},"properties":{"Name":"Baskin-Robbins","Address":"5501 Balboa Ave","City":"San Diego","State":"California","ZipCode":"92111","Country":"USA","EntityType":"Restaurant"}},
{"type":"Feature","geometry":{"type":"Point","coordinates":[-83.51562,35.71248]},"properties":{"Name":"Baskin-Robbins","Address":"702 Parkway Rd","City":"Gatlinburg","State":"Tennessee","ZipCode":"37738","Country":"USA","EntityType":"Restaurant"}},
{"type":"Feature","geometry":{"type":"Point","coordinates":[-74.35112,40.77891]},"properties":{"Name":"Baskin-Robbins","Address":"124 Livingston Mall","City":"Livingston Twp","State":"New Jersey","ZipCode":"07039","Country":"USA","EntityType":"Restaurant"}},
{"type":"Feature","geometry":{"type":"Point","coordinates":[-104.98956,39.57358]},"properties":{"Name":"Baskin-Robbins","Address":"91 Mineral Ave","City":"Littleton","State":"Colorado","ZipCode":"80120","Country":"USA","EntityType":"Restaurant"}},
{"type":"Feature","geometry":{"type":"Point","coordinates":[-73.98087,40.5756]},"properties":{"Name":"Baskin-Robbins","Address":"1243 Surf Ave","City":"New York","State":"New York","ZipCode":"11224","Country":"USA","EntityType":"Restaurant"}},
{"type":"Feature","geometry":{"type":"Point","coordinates":[-87.16012,41.55059]},"properties":{"Name":"Baskin-Robbins","Address":"6550 US Highway 6 Ave","City":"Portage","State":"Indiana","ZipCode":"46368","Country":"USA","EntityType":"Restaurant"}},
{"type":"Feature","geometry":{"type":"Point","coordinates":[-75.19532,38.63125]},"properties":{"Name":"Baskin-Robbins","Address":"25938 John J Williams Hwy","City":"Uninc Sussex County","State":"Delaware","ZipCode":"19966","Country":"USA","EntityType":"Restaurant"}},
{"type":"Feature","geometry":{"type":"Point","coordinates":[-88.2057,42.1911]},"properties":{"Name":"Baskin-Robbins","Address":"916 Northwest Hwy","City":"Fox River Grove","State":"Illinois","ZipCode":"60021","Country":"USA","EntityType":"Restaurant"}},
{"type":"Feature","geometry":{"type":"Point","coordinates":[-86.56827,34.69065]},"properties":{"Name":"Baskin-Robbins","Address":"5000 Whitesburg Dr","City":"Huntsville","State":"Alabama","ZipCode":"35802","Country":"USA","EntityType":"Restaurant"}},
{"type":"Feature","geometry":{"type":"Point","coordinates":[-91.6207,35.79467]},"properties":{"Name":"Batesville School District","Address":"2473 Main St","City":"Uninc Independence County","State":"Arkansas","ZipCode":"72501","Country":"USA","EntityType":"School"}},
{"type":"Feature","geometry":{"type":"Point","coordinates":[-87.79815,41.70749]},"properties":{"Name":"Batory Deli","Address":"10135 Harlem Ave","City":"Chicago Ridge","State":"Illinois","ZipCode":"60415","Country":"USA","EntityType":"Restaurant"}},
{"type":"Feature","geometry":{"type":"Point","coordinates":[-87.35548,46.49682]},"properties":{"Name":"Bayou Bar & Grill","Address":"200 Main St","City":"Chocolay Twp","State":"Michigan","ZipCode":"49855","Country":"USA","EntityType":"Restaurant"}},
{"type":"Feature","geometry":{"type":"Point","coordinates":[-95.12891,45.50219]},"properties":{"Name":"Bbe Elementary School","Address":"550 School Ave","City":"Brooten","State":"Minnesota","ZipCode":"56316","Country":"USA","EntityType":"School"}},
{"type":"Feature","geometry":{"type":"Point","coordinates":[-74.69604,39.1497]},"properties":{"Name":"BBQ Willie's Wings & Ribs","Address":"4914 Landis Ave","City":"Sea Isle City","State":"New Jersey","ZipCode":"08243","Country":"USA","EntityType":"Restaurant"}},
{"type":"Feature","geometry":{"type":"Point","coordinates":[-117.25727,33.04586]},"properties":{"Name":"Beach Grass Cafe","Address":"1476 Encinitas Blvd","City":"Encinitas","State":"California","ZipCode":"92024","Country":"USA","EntityType":"Restaurant"}},
{"type":"Feature","geometry":{"type":"Point","coordinates":[-119.69368,34.41548]},"properties":{"Name":"Beachbreak Cafe","Address":"324 State St","City":"Santa Barbara","State":"California","ZipCode":"93101","Country":"USA","EntityType":"Restaurant"}},
{"type":"Feature","geometry":{"type":"Point","coordinates":[-157.91304,21.34475]},"properties":{"Name":"Beard Papa","Address":"848 Ala Lilikoi St","City":"Honolulu","State":"Hawaii","ZipCode":"96818","Country":"USA","EntityType":"Restaurant"}},
{"type":"Feature","geometry":{"type":"Point","coordinates":[-122.80574,45.49116]},"properties":{"Name":"Beaverton Sushi","Address":"12600 Crescent St","City":"Beaverton","State":"Oregon","ZipCode":"97005","Country":"USA","EntityType":"Restaurant"}},
{"type":"Feature","geometry":{"type":"Point","coordinates":[-78.88075,35.05338]},"properties":{"Name":"Beef OBrady's","Address":"229 Hay St","City":"Fayetteville","State":"North Carolina","ZipCode":"28301","Country":"USA","EntityType":"Restaurant"}},
{"type":"Feature","geometry":{"type":"Point","coordinates":[-75.60161,40.24555]},"properties":{"Name":"Beijing Gardens","Address":"600 Heritage Dr","City":"Lower Pottsgrove Twp","State":"Pennsylvania","ZipCode":"19464","Country":"USA","EntityType":"Restaurant"}},
{"type":"Feature","geometry":{"type":"Point","coordinates":[-94.19599,36.35669]},"properties":{"Name":"Bella Napoli","Address":"1100 14th St","City":"Bentonville","State":"Arkansas","ZipCode":"72712","Country":"USA","EntityType":"Restaurant"}},
{"type":"Feature","geometry":{"type":"Point","coordinates":[-74.22344,40.54893]},"properties":{"Name":"Bella Roma","Address":"2730 Arthur Kill Rd","City":"New York","State":"New York","ZipCode":"10309","Country":"USA","EntityType":"Restaurant"}},
{"type":"Feature","geometry":{"type":"Point","coordinates":[-90.67134,38.78787]},"properties":{"Name":"Bellacinos","Address":"8099 Mexico Rd","City":"St Peters","State":"Missouri","ZipCode":"63376","Country":"USA","EntityType":"Restaurant"}},
{"type":"Feature","geometry":{"type":"Point","coordinates":[-73.82783,40.69422]},"properties":{"Name":"Bellerose Famous Pizza","Address":"119-19 Atlantic Ave","City":"New York","State":"New York","ZipCode":"11418","Country":"USA","EntityType":"Restaurant"}},
{"type":"Feature","geometry":{"type":"Point","coordinates":[-75.00695,39.98799]},"properties":{"Name":"Bellisimos Pizza","Address":"2103 Branch Pike","City":"Cinnaminson Twp","State":"New Jersey","ZipCode":"08077","Country":"USA","EntityType":"Restaurant"}},
{"type":"Feature","geometry":{"type":"Point","coordinates":[-98.10707,39.47674]},"properties":{"Name":"Beloit Jr Sr High School","Address":"700 Walnut St","City":"Beloit","State":"Kansas","ZipCode":"67420","Country":"USA","EntityType":"School"}},
{"type":"Feature","geometry":{"type":"Point","coordinates":[-77.01621,38.7856]},"properties":{"Name":"Ben & Jerry's","Address":"140 National Plz","City":"Uninc Prince George's County","State":"Maryland","ZipCode":"20745","Country":"USA","EntityType":"Restaurant"}},
{"type":"Feature","geometry":{"type":"Point","coordinates":[-73.97333,40.65485]},"properties":{"Name":"Bene's Pizzeria","Address":"157 Prospect Park","City":"New York","State":"New York","ZipCode":"11218","Country":"USA","EntityType":"Restaurant"}},
{"type":"Feature","geometry":{"type":"Point","coordinates":[-86.6539,30.41565]},"properties":{"Name":"Benjarong Thai Cuisine","Address":"251 Mary Esther Blvd","City":"Mary Esther","State":"Florida","ZipCode":"32569","Country":"USA","EntityType":"Restaurant"}},
{"type":"Feature","geometry":{"type":"Point","coordinates":[-97.5407,32.89108]},"properties":{"Name":"Benny's Pizza & Pasta Restaurant","Address":"112 Southeast Pky","City":"Azle","State":"Texas","ZipCode":"76020","Country":"USA","EntityType":"Restaurant"}},
{"type":"Feature","geometry":{"type":"Point","coordinates":[-121.4041,38.57434]},"properties":{"Name":"Bento Box","Address":"2449 Fair Oaks Blvd","City":"Uninc Sacramento County","State":"California","ZipCode":"95825","Country":"USA","EntityType":"Restaurant"}},
{"type":"Feature","geometry":{"type":"Point","coordinates":[-98.23392,26.20046]},"properties":{"Name":"Bernice's","Address":"320 Broadway St","City":"McAllen","State":"Texas","ZipCode":"78501","Country":"USA","EntityType":"Restaurant"}},
{"type":"Feature","geometry":{"type":"Point","coordinates":[-72.60897,44.87799]},"properties":{"Name":"Bernie's Restaurant","Address":"72 Main St","City":"Montgomery, Town of","State":"Vermont","ZipCode":"05471","Country":"USA","EntityType":"Restaurant"}},
{"type":"Feature","geometry":{"type":"Point","coordinates":[-85.97226,41.71248]},"properties":{"Name":"Between Buns","Address":"2041 Cassopolis St","City":"Elkhart","State":"Indiana","ZipCode":"46514","Country":"USA","EntityType":"Restaurant"}},
{"type":"Feature","geometry":{"type":"Point","coordinates":[-75.99773,40.30567]},"properties":{"Name":"Beverly Hills Tavern","Address":"710 Old Fritztown Rd","City":"Spring Twp","State":"Pennsylvania","ZipCode":"19608","Country":"USA","EntityType":"Restaurant"}},
{"type":"Feature","geometry":{"type":"Point","coordinates":[-90.74607,29.60001]},"properties":{"Name":"Big al's Seafood","Address":"1377 Tunnel Blvd","City":"Uninc Terrebonne Parish","State":"Louisiana","ZipCode":"70360","Country":"USA","EntityType":"Restaurant"}},
{"type":"Feature","geometry":{"type":"Point","coordinates":[-76.68178,39.95953]},"properties":{"Name":"Big Apple Bagels","Address":"1021 Haines Rd","City":"Springettsbury Twp","State":"Pennsylvania","ZipCode":"17402","Country":"USA","EntityType":"Restaurant"}},
{"type":"Feature","geometry":{"type":"Point","coordinates":[-121.92181,37.79825]},"properties":{"Name":"Big Apple Bagels","Address":"9000 Crow Canyon Rd","City":"Danville","State":"California","ZipCode":"94506","Country":"USA","EntityType":"Restaurant"}},
{"type":"Feature","geometry":{"type":"Point","coordinates":[-70.94691,42.4643]},"properties":{"Name":"Big Belly Deli","Address":"424 Washington St","City":"Lynn","State":"Massachusetts","ZipCode":"01901","Country":"USA","EntityType":"Restaurant"}},
{"type":"Feature","geometry":{"type":"Point","coordinates":[-84.7085,44.65383]},"properties":{"Name":"Big Boy","Address":"2222 I 75 Business Loop","City":"Grayling","State":"Michigan","ZipCode":"49738","Country":"USA","EntityType":"Restaurant"}},
{"type":"Feature","geometry":{"type":"Point","coordinates":[-76.4865,38.97831]},"properties":{"Name":"Big Cheese","Address":"47 Randall St","City":"Annapolis","State":"Maryland","ZipCode":"21401","Country":"USA","EntityType":"Restaurant"}},
{"type":"Feature","geometry":{"type":"Point","coordinates":[-81.76763,28.02944]},"properties":{"Name":"Big Daddy's BBQ & Sub","Address":"3400 Avenue G Dr","City":"Uninc Polk County","State":"Florida","ZipCode":"33880","Country":"USA","EntityType":"Restaurant"}},
{"type":"Feature","geometry":{"type":"Point","coordinates":[-122.52856,37.97315]},"properties":{"Name":"Big Dogg Pizza","Address":"1115 4th St","City":"San Rafael","State":"California","ZipCode":"94901","Country":"USA","EntityType":"Restaurant"}},
{"type":"Feature","geometry":{"type":"Point","coordinates":[-95.88629,36.06213]},"properties":{"Name":"Big Easy Cajun","Address":"7021 Memorial Dr","City":"Tulsa","State":"Oklahoma","ZipCode":"74133","Country":"USA","EntityType":"Restaurant"}},
{"type":"Feature","geometry":{"type":"Point","coordinates":[-93.2474,45.05459]},"properties":{"Name":"Big Marina Grill & Deli O","Address":"4755 Central Ave","City":"Columbia Heights","State":"Minnesota","ZipCode":"55421","Country":"USA","EntityType":"Restaurant"}},
{"type":"Feature","geometry":{"type":"Point","coordinates":[-82.18023,29.20447]},"properties":{"Name":"Big Rascal BBQ & Grille","Address":"3437 Blitchton Rd","City":"Ocala","State":"Florida","ZipCode":"34475","Country":"USA","EntityType":"Restaurant"}},
{"type":"Feature","geometry":{"type":"Point","coordinates":[-74.36779,40.71539]},"properties":{"Name":"Bilingual Buds Chinese Preschool","Address":"587 Springfield Ave","City":"Summit","State":"New Jersey","ZipCode":"07901","Country":"USA","EntityType":"School"}},
{"type":"Feature","geometry":{"type":"Point","coordinates":[-88.51999,34.93196]},"properties":{"Name":"Bill's Family Restaurant","Address":"408 Tate St","City":"Corinth","State":"Mississippi","ZipCode":"38834","Country":"USA","EntityType":"Restaurant"}},
{"type":"Feature","geometry":{"type":"Point","coordinates":[-82.22656,34.93793]},"properties":{"Name":"Bin112 on Trade Street","Address":"112 Trade St","City":"Greer","State":"South Carolina","ZipCode":"29651","Country":"USA","EntityType":"Restaurant"}},
{"type":"Feature","geometry":{"type":"Point","coordinates":[-71.06249,42.35345]},"properties":{"Name":"Bina Osteria & Alimentari","Address":"581 Washington St","City":"Boston","State":"Massachusetts","ZipCode":"02111","Country":"USA","EntityType":"Restaurant"}},
{"type":"Feature","geometry":{"type":"Point","coordinates":[-82.55045,35.57259]},"properties":{"Name":"Birdhouse the Cafe","Address":"418 McDowell St","City":"Asheville","State":"North Carolina","ZipCode":"28803","Country":"USA","EntityType":"Restaurant"}},
{"type":"Feature","geometry":{"type":"Point","coordinates":[-81.54921,28.37734]},"properties":{"Name":"Bistro de Paris","Address":"2210  Blvd","City":"Bay Lake","State":"Florida","ZipCode":"32830","Country":"USA","EntityType":"Restaurant"}},
{"type":"Feature","geometry":{"type":"Point","coordinates":[-82.50608,27.91501]},"properties":{"Name":"BJ's Alabama BBQ","Address":"3307 Dale Mabry Hwy","City":"Tampa","State":"Florida","ZipCode":"33629","Country":"USA","EntityType":"Restaurant"}},
{"type":"Feature","geometry":{"type":"Point","coordinates":[-89.79266,43.60267]},"properties":{"Name":"BJ's Restaurant","Address":"1201 Wisconsin Dells Pky","City":"Lake Delton","State":"Wisconsin","ZipCode":"53965","Country":"USA","EntityType":"Restaurant"}},
{"type":"Feature","geometry":{"type":"Point","coordinates":[-118.00129,33.65674]},"properties":{"Name":"Black Bull Chophouse","Address":"300 Pacific Coast Hwy","City":"Huntington Beach","State":"California","ZipCode":"92648","Country":"USA","EntityType":"Restaurant"}},
{"type":"Feature","geometry":{"type":"Point","coordinates":[-84.3044,34.87553]},"properties":{"Name":"Blackberry Ridge Eatery","Address":"5140 Appalachian Hwy","City":"Uninc Fannin County","State":"Georgia","ZipCode":"30513","Country":"USA","EntityType":"Restaurant"}},
{"type":"Feature","geometry":{"type":"Point","coordinates":[-117.10753,32.76328]},"properties":{"Name":"Bleu Boheme","Address":"4090 Adams Ave","City":"San Diego","State":"California","ZipCode":"92116","Country":"USA","EntityType":"Restaurant"}},
{"type":"Feature","geometry":{"type":"Point","coordinates":[-96.95869,32.89909]},"properties":{"Name":"Blu Ginger Thai Cafe","Address":"6550 MacArthur Blvd","City":"Irving","State":"Texas","ZipCode":"75039","Country":"USA","EntityType":"Restaurant"}},
{"type":"Feature","geometry":{"type":"Point","coordinates":[-118.20729,33.8893]},"properties":{"Name":"Bludso's BBQ","Address":"811 Long Beach Blvd","City":"Compton","State":"California","ZipCode":"90221","Country":"USA","EntityType":"Restaurant"}},
{"type":"Feature","geometry":{"type":"Point","coordinates":[-73.75797,40.74004]},"properties":{"Name":"Blue Dake Restaurant","Address":"73-32 Bell Blvd","City":"New York","State":"New York","ZipCode":"11364","Country":"USA","EntityType":"Restaurant"}},
{"type":"Feature","geometry":{"type":"Point","coordinates":[-97.14322,32.72129]},"properties":{"Name":"Blue Danube European Restaurant","Address":"2230 Park Row Dr","City":"Pantego","State":"Texas","ZipCode":"76013","Country":"USA","EntityType":"Restaurant"}},
{"type":"Feature","geometry":{"type":"Point","coordinates":[-122.42248,37.77792]},"properties":{"Name":"Blue Muse Restaurant & Bar","Address":"370 Grove St","City":"San Francisco","State":"California","ZipCode":"94102","Country":"USA","EntityType":"Restaurant"}},
{"type":"Feature","geometry":{"type":"Point","coordinates":[-88.45999,44.26209]},"properties":{"Name":"Blueberry Hill","Address":"3626 College Ave","City":"Grand Chute, Town of","State":"Wisconsin","ZipCode":"54914","Country":"USA","EntityType":"Restaurant"}},
{"type":"Feature","geometry":{"type":"Point","coordinates":[-84.52278,37.96024]},"properties":{"Name":"Bluegrass Bar & Grill","Address":"372 Ashmoor Dr","City":"Lexington","State":"Kentucky","ZipCode":"40515","Country":"USA","EntityType":"Restaurant"}},
{"type":"Feature","geometry":{"type":"Point","coordinates":[-82.92197,38.75465]},"properties":{"Name":"Bob Evans","Address":"4602 Gallia St","City":"New Boston","State":"Ohio","ZipCode":"45662","Country":"USA","EntityType":"Restaurant"}},
{"type":"Feature","geometry":{"type":"Point","coordinates":[-90.87512,38.81291]},"properties":{"Name":"Bob Evans","Address":"3001 Wentzville Pky","City":"Wentzville","State":"Missouri","ZipCode":"63385","Country":"USA","EntityType":"Restaurant"}},
{"type":"Feature","geometry":{"type":"Point","coordinates":[-86.53742,41.71018]},"properties":{"Name":"Bobbie's Dock Side Grille","Address":"7038 Chicago Rd","City":"Uninc Laporte County","State":"Indiana","ZipCode":"46552","Country":"USA","EntityType":"Restaurant"}},
{"type":"Feature","geometry":{"type":"Point","coordinates":[-74.21642,40.71137]},"properties":{"Name":"Bobby's Restaurant","Address":"272 Lyons Ave","City":"Newark","State":"New Jersey","ZipCode":"07112","Country":"USA","EntityType":"Restaurant"}},
{"type":"Feature","geometry":{"type":"Point","coordinates":[-106.31934,35.8998]},"properties":{"Name":"Bob's Bodacious BBQ","Address":"3801 Arkansas Ave","City":"Uninc Los Alamos County","State":"New Mexico","ZipCode":"87544","Country":"USA","EntityType":"Restaurant"}},
{"type":"Feature","geometry":{"type":"Point","coordinates":[-93.01634,40.47686]},"properties":{"Name":"Bob's Food Mart","Address":"2705 Main St","City":"Unionville","State":"Missouri","ZipCode":"63565","Country":"USA","EntityType":"Grocery Store"}},
{"type":"Feature","geometry":{"type":"Point","coordinates":[-82.95148,40.02696]},"properties":{"Name":"Bob's Market & Carry Out","Address":"2257 Agler Rd","City":"Uninc Franklin County","State":"Ohio","ZipCode":"43224","Country":"USA","EntityType":"Grocery Store"}},
{"type":"Feature","geometry":{"type":"Point","coordinates":[-86.36956,39.61037]},"properties":{"Name":"Bob's Tu Your Door Pizza","Address":"229 High St","City":"Mooresville","State":"Indiana","ZipCode":"46158","Country":"USA","EntityType":"Restaurant"}},
{"type":"Feature","geometry":{"type":"Point","coordinates":[-97.67394,30.41367]},"properties":{"Name":"Bombay Express","Address":"13000 Interstate 35 Rd","City":"Austin","State":"Texas","ZipCode":"78753","Country":"USA","EntityType":"Restaurant"}},
{"type":"Feature","geometry":{"type":"Point","coordinates":[-96.88678,32.9976]},"properties":{"Name":"Bon Mua","Address":"3030 Josey Ln","City":"Carrollton","State":"Texas","ZipCode":"75007","Country":"USA","EntityType":"Restaurant"}},
{"type":"Feature","geometry":{"type":"Point","coordinates":[-81.58708,28.52084]},"properties":{"Name":"Bonefish Grill","Address":"3279 Daniels Rd","City":"Winter Garden","State":"Florida","ZipCode":"34787","Country":"USA","EntityType":"Restaurant"}},
{"type":"Feature","geometry":{"type":"Point","coordinates":[-88.90152,38.31782]},"properties":{"Name":"Bonnie Cafe","Address":"817 Main St","City":"Mt Vernon","State":"Illinois","ZipCode":"62864","Country":"USA","EntityType":"Restaurant"}},
{"type":"Feature","geometry":{"type":"Point","coordinates":[-84.55325,39.38856]},"properties":{"Name":"Bonnie's Cafe","Address":"750 East Ave","City":"Hamilton","State":"Ohio","ZipCode":"45011","Country":"USA","EntityType":"Restaurant"}},
{"type":"Feature","geometry":{"type":"Point","coordinates":[-89.76901,43.47776]},"properties":{"Name":"Bonzo's","Address":"725 Pine St","City":"West Baraboo","State":"Wisconsin","ZipCode":"53913","Country":"USA","EntityType":"Restaurant"}},
{"type":"Feature","geometry":{"type":"Point","coordinates":[-101.84628,35.20463]},"properties":{"Name":"Boondocks Bar & Grill","Address":"711 10th Ave","City":"Amarillo","State":"Texas","ZipCode":"79101","Country":"USA","EntityType":"Restaurant"}},
{"type":"Feature","geometry":{"type":"Point","coordinates":[-88.20563,41.78319]},"properties":{"Name":"Boraan's","Address":"760 Route 59 St","City":"Naperville","State":"Illinois","ZipCode":"60563","Country":"USA","EntityType":"Restaurant"}},
{"type":"Feature","geometry":{"type":"Point","coordinates":[-90.09979,29.96599]},"properties":{"Name":"Boswell's Jamaican Grill","Address":"3521 Tulane Ave","City":"New Orleans","State":"Louisiana","ZipCode":"70119","Country":"USA","EntityType":"Restaurant"}},
{"type":"Feature","geometry":{"type":"Point","coordinates":[-86.17845,42.97218]},"properties":{"Name":"Botello Grocery","Address":"15791 Lake Michigan Dr","City":"Grand Haven Twp","State":"Michigan","ZipCode":"49460","Country":"USA","EntityType":"Grocery Store"}},
{"type":"Feature","geometry":{"type":"Point","coordinates":[-77.05735,38.90503]},"properties":{"Name":"Bourbon Steak","Address":"2800 Pennsylvania Ave","City":"Washington","State":"District of Columbia","ZipCode":"20007","Country":"USA","EntityType":"Restaurant"}},
{"type":"Feature","geometry":{"type":"Point","coordinates":[-91.3593,37.96693]},"properties":{"Name":"Bouses Dairy Isle","Address":"502 Main St","City":"Steelville","State":"Missouri","ZipCode":"65565","Country":"USA","EntityType":"Restaurant"}},
{"type":"Feature","geometry":{"type":"Point","coordinates":[-73.91806,40.75534]},"properties":{"Name":"Brasilianville Cafe","Address":"43-12 34th Ave","City":"New York","State":"New York","ZipCode":"11101","Country":"USA","EntityType":"Restaurant"}},
{"type":"Feature","geometry":{"type":"Point","coordinates":[-92.43374,39.41644]},"properties":{"Name":"Bratcher's Market","Address":"301 Morley St","City":"Moberly","State":"Missouri","ZipCode":"65270","Country":"USA","EntityType":"Grocery Store"}},
{"type":"Feature","geometry":{"type":"Point","coordinates":[-97.21472,32.76623]},"properties":{"Name":"Braum's","Address":"6770 Bridge St","City":"Fort Worth","State":"Texas","ZipCode":"76112","Country":"USA","EntityType":"Restaurant"}},
{"type":"Feature","geometry":{"type":"Point","coordinates":[-98.36143,34.60881]},"properties":{"Name":"Braum's","Address":"2202 Gore Blvd","City":"Lawton","State":"Oklahoma","ZipCode":"73501","Country":"USA","EntityType":"Restaurant"}},
{"type":"Feature","geometry":{"type":"Point","coordinates":[-117.25663,33.0458]},"properties":{"Name":"Brett's BBQ","Address":"1505 Encinitas Blvd","City":"Encinitas","State":"California","ZipCode":"92024","Country":"USA","EntityType":"Restaurant"}},
{"type":"Feature","geometry":{"type":"Point","coordinates":[-89.97344,29.95133]},"properties":{"Name":"Brewster's","Address":"8751 Judge Perez Dr","City":"Uninc St Bernard Parish","State":"Louisiana","ZipCode":"70043","Country":"USA","EntityType":"Restaurant"}},
{"type":"Feature","geometry":{"type":"Point","coordinates":[-84.55745,34.1122]},"properties":{"Name":"Brewster's Real Ice Cream","Address":"2905 Eagle Dr","City":"Woodstock","State":"Georgia","ZipCode":"30189","Country":"USA","EntityType":"Restaurant"}},
{"type":"Feature","geometry":{"type":"Point","coordinates":[-82.02344,26.60814]},"properties":{"Name":"Brickhouse Pizza Company","Address":"2384 Surfside Blvd","City":"Cape Coral","State":"Florida","ZipCode":"33991","Country":"USA","EntityType":"Restaurant"}},
{"type":"Feature","geometry":{"type":"Point","coordinates":[-90.35231,41.57901]},"properties":{"Name":"Bridgeview Inn","Address":"1802 2nd Ave","City":"Rapids City","State":"Illinois","ZipCode":"61275","Country":"USA","EntityType":"Restaurant"}},
{"type":"Feature","geometry":{"type":"Point","coordinates":[-122.27425,47.78409]},"properties":{"Name":"Brier Pizza & Family Restaurant","Address":"23631 Brier Rd","City":"Brier","State":"Washington","ZipCode":"98036","Country":"USA","EntityType":"Restaurant"}},
{"type":"Feature","geometry":{"type":"Point","coordinates":[-118.15029,34.11871]},"properties":{"Name":"Bristol Farms","Address":"606 Fair Oaks Ave","City":"South Pasadena","State":"California","ZipCode":"91030","Country":"USA","EntityType":"Grocery Store"}},
{"type":"Feature","geometry":{"type":"Point","coordinates":[-71.39878,42.2986]},"properties":{"Name":"British Beer Company","Address":"120 Worcester Rd","City":"Framingham, Town of","State":"Massachusetts","ZipCode":"01702","Country":"USA","EntityType":"Restaurant"}},
{"type":"Feature","geometry":{"type":"Point","coordinates":[-69.80335,44.36414]},"properties":{"Name":"Britt's Cafe & Eatery","Address":"45 Commerce Dr","City":"Augusta, Town of","State":"Maine","ZipCode":"04330","Country":"USA","EntityType":"Restaurant"}},
{"type":"Feature","geometry":{"type":"Point","coordinates":[-73.91936,40.75912]},"properties":{"Name":"Broad Chinese & Seafood","Address":"38-10 Broadway Rd","City":"New York","State":"New York","ZipCode":"11103","Country":"USA","EntityType":"Restaurant"}},
{"type":"Feature","geometry":{"type":"Point","coordinates":[-77.51866,39.01744]},"properties":{"Name":"Broadlands Pub & Grill","Address":"42882 Truro Parish Dr","City":"Uninc Loudoun County","State":"Virginia","ZipCode":"20148","Country":"USA","EntityType":"Restaurant"}},
{"type":"Feature","geometry":{"type":"Point","coordinates":[-81.40472,28.29493]},"properties":{"Name":"Broadway Pizza Bar","Address":"403 Broadway Blvd","City":"Kissimmee","State":"Florida","ZipCode":"34741","Country":"USA","EntityType":"Restaurant"}},
{"type":"Feature","geometry":{"type":"Point","coordinates":[-76.80321,40.33064]},"properties":{"Name":"Brothers Pizza","Address":"724 Colonial Club Dr","City":"Lower Paxton Twp","State":"Pennsylvania","ZipCode":"17112","Country":"USA","EntityType":"Restaurant"}},
{"type":"Feature","geometry":{"type":"Point","coordinates":[-73.89673,40.86723]},"properties":{"Name":"Brother's Pizzeria","Address":"27 Kingsbridge Rd","City":"New York","State":"New York","ZipCode":"10468","Country":"USA","EntityType":"Restaurant"}},
{"type":"Feature","geometry":{"type":"Point","coordinates":[-75.33725,40.02575]},"properties":{"Name":"Brothers Spano","Address":"157 Garrett Ave","City":"Radnor Twp","State":"Pennsylvania","ZipCode":"19010","Country":"USA","EntityType":"Restaurant"}},
{"type":"Feature","geometry":{"type":"Point","coordinates":[-105.05449,39.91542]},"properties":{"Name":"Bruegger's","Address":"1275 1st Ave","City":"Broomfield","State":"Colorado","ZipCode":"80020","Country":"USA","EntityType":"Restaurant"}},
{"type":"Feature","geometry":{"type":"Point","coordinates":[-72.92245,41.31065]},"properties":{"Name":"Bruegger's","Address":"1 Whitney Ave","City":"New Haven","State":"Connecticut","ZipCode":"06510","Country":"USA","EntityType":"Restaurant"}},
{"type":"Feature","geometry":{"type":"Point","coordinates":[-77.57415,37.59503]},"properties":{"Name":"Bruster's","Address":"8911 Patterson Ave","City":"Uninc Henrico County","State":"Virginia","ZipCode":"23229","Country":"USA","EntityType":"Restaurant"}},
{"type":"Feature","geometry":{"type":"Point","coordinates":[-101.92228,33.46964]},"properties":{"Name":"Bryan's Shiloh Steakhouse","Address":"14104 FM 1730 St","City":"Uninc Lubbock County","State":"Texas","ZipCode":"79424","Country":"USA","EntityType":"Restaurant"}},
{"type":"Feature","geometry":{"type":"Point","coordinates":[-72.00969,42.47767]},"properties":{"Name":"B's Country Kitchen","Address":"32 Main St","City":"Hubbardston, Town of","State":"Massachusetts","ZipCode":"01452","Country":"USA","EntityType":"Restaurant"}},
{"type":"Feature","geometry":{"type":"Point","coordinates":[-86.76155,40.48788]},"properties":{"Name":"Buck Creek Pizza","Address":"4900 Main St","City":"Uninc Tippecanoe County","State":"Indiana","ZipCode":"47924","Country":"USA","EntityType":"Restaurant"}},
{"type":"Feature","geometry":{"type":"Point","coordinates":[-84.27744,35.82712]},"properties":{"Name":"Buddy's BBQ","Address":"1104 Highway 321 St","City":"Lenoir City","State":"Tennessee","ZipCode":"37771","Country":"USA","EntityType":"Restaurant"}},
{"type":"Feature","geometry":{"type":"Point","coordinates":[-90.15497,30.00487]},"properties":{"Name":"Bud's Broiler","Address":"2929 Causeway Blvd","City":"Uninc Jefferson Parish","State":"Louisiana","ZipCode":"70002","Country":"USA","EntityType":"Restaurant"}},
{"type":"Feature","geometry":{"type":"Point","coordinates":[-88.19763,41.74737]},"properties":{"Name":"Buffalo Wild Wings","Address":"2555 75th St","City":"Naperville","State":"Illinois","ZipCode":"60540","Country":"USA","EntityType":"Restaurant"}},
{"type":"Feature","geometry":{"type":"Point","coordinates":[-76.49597,37.10813]},"properties":{"Name":"Buffalo Wild Wings","Address":"12150 Jefferson Ave","City":"Newport News","State":"Virginia","ZipCode":"23602","Country":"USA","EntityType":"Restaurant"}},
{"type":"Feature","geometry":{"type":"Point","coordinates":[-94.18381,36.34336]},"properties":{"Name":"Buffalo Wild Wings","Address":"2707 Moberly Ln","City":"Bentonville","State":"Arkansas","ZipCode":"72712","Country":"USA","EntityType":"Restaurant"}},
{"type":"Feature","geometry":{"type":"Point","coordinates":[-84.59495,39.42675]},"properties":{"Name":"Buffalo Wild Wings","Address":"746 Washington Blvd","City":"Hamilton","State":"Ohio","ZipCode":"45013","Country":"USA","EntityType":"Restaurant"}},
{"type":"Feature","geometry":{"type":"Point","coordinates":[-94.15652,36.12497]},"properties":{"Name":"Buffalo Wild Wings","Address":"32 Joyce Blvd","City":"Fayetteville","State":"Arkansas","ZipCode":"72703","Country":"USA","EntityType":"Restaurant"}},
{"type":"Feature","geometry":{"type":"Point","coordinates":[-77.50889,38.30453]},"properties":{"Name":"Buffalo Wild Wings","Address":"1638 Carl D Silver Pky","City":"Fredericksburg","State":"Virginia","ZipCode":"22401","Country":"USA","EntityType":"Restaurant"}},
{"type":"Feature","geometry":{"type":"Point","coordinates":[-84.55317,34.01396]},"properties":{"Name":"Buffalo Wild Wings","Address":"125 Barrett Pky","City":"Uninc Cobb County","State":"Georgia","ZipCode":"30066","Country":"USA","EntityType":"Restaurant"}},
{"type":"Feature","geometry":{"type":"Point","coordinates":[-82.45399,40.40055]},"properties":{"Name":"Buffet Oriental","Address":"995 Coshocton Ave","City":"Mt Vernon","State":"Ohio","ZipCode":"43050","Country":"USA","EntityType":"Restaurant"}},
{"type":"Feature","geometry":{"type":"Point","coordinates":[-92.14522,37.81493]},"properties":{"Name":"Bulgogie House","Address":"1018 Missouri Ave","City":"St Robert","State":"Missouri","ZipCode":"65584","Country":"USA","EntityType":"Restaurant"}},
{"type":"Feature","geometry":{"type":"Point","coordinates":[-94.25585,35.21218]},"properties":{"Name":"Bulldog Diner","Address":"3 Main St","City":"Greenwood","State":"Arkansas","ZipCode":"72936","Country":"USA","EntityType":"Restaurant"}},
{"type":"Feature","geometry":{"type":"Point","coordinates":[-74.55878,39.39217]},"properties":{"Name":"BURGER KING","Address":"6813 Tilton Rd","City":"Egg Harbor Twp","State":"New Jersey","ZipCode":"08234","Country":"USA","EntityType":"Restaurant"}},
{"type":"Feature","geometry":{"type":"Point","coordinates":[-73.75261,40.68011]},"properties":{"Name":"BURGER KING","Address":"216-03 Merrick Blvd","City":"New York","State":"New York","ZipCode":"11413","Country":"USA","EntityType":"Restaurant"}},
{"type":"Feature","geometry":{"type":"Point","coordinates":[-73.89781,40.75426]},"properties":{"Name":"BURGER KING","Address":"68-15 Northern Blvd","City":"New York","State":"New York","ZipCode":"11377","Country":"USA","EntityType":"Restaurant"}},
{"type":"Feature","geometry":{"type":"Point","coordinates":[-83.44154,34.18222]},"properties":{"Name":"BURGER KING","Address":"30504 Highway 441 Rd","City":"Commerce","State":"Georgia","ZipCode":"30529","Country":"USA","EntityType":"Restaurant"}},
{"type":"Feature","geometry":{"type":"Point","coordinates":[-86.53212,30.46566]},"properties":{"Name":"BURGER KING","Address":"1765 Memorial Trl","City":"Uninc Okaloosa County","State":"Florida","ZipCode":"32542","Country":"USA","EntityType":"Restaurant"}},
{"type":"Feature","geometry":{"type":"Point","coordinates":[-89.1529,41.367]},"properties":{"Name":"BURGER KING","Address":"3130 May Rd","City":"Peru","State":"Illinois","ZipCode":"61354","Country":"USA","EntityType":"Restaurant"}},
{"type":"Feature","geometry":{"type":"Point","coordinates":[-95.48373,29.73162]},"properties":{"Name":"BURGER KING","Address":"5930 Richmond Ave","City":"Houston","State":"Texas","ZipCode":"77057","Country":"USA","EntityType":"Restaurant"}},
{"type":"Feature","geometry":{"type":"Point","coordinates":[-118.23939,34.14262]},"properties":{"Name":"BURGER KING","Address":"1200 Colorado St","City":"Glendale","State":"California","ZipCode":"91205","Country":"USA","EntityType":"Restaurant"}},
{"type":"Feature","geometry":{"type":"Point","coordinates":[-83.91111,34.002]},"properties":{"Name":"BURGER KING","Address":"700 Dacula Rd","City":"Dacula","State":"Georgia","ZipCode":"30019","Country":"USA","EntityType":"Restaurant"}},
{"type":"Feature","geometry":{"type":"Point","coordinates":[-117.27301,32.84697]},"properties":{"Name":"Burger Lounge","Address":"1101 Wall St","City":"San Diego","State":"California","ZipCode":"92037","Country":"USA","EntityType":"Restaurant"}},
{"type":"Feature","geometry":{"type":"Point","coordinates":[-95.5561,33.67283]},"properties":{"Name":"Burgerland","Address":"1301 Main St","City":"Paris","State":"Texas","ZipCode":"75460","Country":"USA","EntityType":"Restaurant"}},
{"type":"Feature","geometry":{"type":"Point","coordinates":[-91.42873,44.77843]},"properties":{"Name":"Burracho's","Address":"5314 Prill Rd","City":"Eau Claire","State":"Wisconsin","ZipCode":"54701","Country":"USA","EntityType":"Restaurant"}},
{"type":"Feature","geometry":{"type":"Point","coordinates":[-89.06863,41.92935]},"properties":{"Name":"Burritoville","Address":"1001 7th St","City":"Rochelle","State":"Illinois","ZipCode":"61068","Country":"USA","EntityType":"Restaurant"}},
{"type":"Feature","geometry":{"type":"Point","coordinates":[-83.36384,42.29644]},"properties":{"Name":"Buscemis","Address":"1690 Venoy Rd","City":"Westland","State":"Michigan","ZipCode":"48186","Country":"USA","EntityType":"Restaurant"}},
{"type":"Feature","geometry":{"type":"Point","coordinates":[-116.39157,43.61028]},"properties":{"Name":"Busted Shovel","Address":"704 Main St","City":"Meridian","State":"Idaho","ZipCode":"83642","Country":"USA","EntityType":"Restaurant"}},
{"type":"Feature","geometry":{"type":"Point","coordinates":[-78.02519,37.32762]},"properties":{"Name":"Busters Steak House","Address":"18540 Patrick Henry Hwy","City":"Uninc Amelia County","State":"Virginia","ZipCode":"23002","Country":"USA","EntityType":"Restaurant"}},
{"type":"Feature","geometry":{"type":"Point","coordinates":[-88.09691,41.96326]},"properties":{"Name":"Butera Market","Address":"550 Lake St","City":"Roselle","State":"Illinois","ZipCode":"60172","Country":"USA","EntityType":"Grocery Store"}},
{"type":"Feature","geometry":{"type":"Point","coordinates":[-73.99901,40.67594]},"properties":{"Name":"Buttermilk Channel","Address":"524 Court St","City":"New York","State":"New York","ZipCode":"11231","Country":"USA","EntityType":"Restaurant"}},
{"type":"Feature","geometry":{"type":"Point","coordinates":[-118.30604,34.06356]},"properties":{"Name":"Byul Gobchang","Address":"3819 6th St","City":"Los Angeles","State":"California","ZipCode":"90020","Country":"USA","EntityType":"Restaurant"}},
{"type":"Feature","geometry":{"type":"Point","coordinates":[-73.74186,40.67665]},"properties":{"Name":"C J's Restaurant","Address":"228-09 Merrick Blvd","City":"New York","State":"New York","ZipCode":"11413","Country":"USA","EntityType":"Restaurant"}},
{"type":"Feature","geometry":{"type":"Point","coordinates":[-108.56684,39.06629]},"properties":{"Name":"Cabett House Grille & Pub","Address":"359 Colorado Ave","City":"Grand Junction","State":"Colorado","ZipCode":"81501","Country":"USA","EntityType":"Restaurant"}},
{"type":"Feature","geometry":{"type":"Point","coordinates":[-118.33574,34.20399]},"properties":{"Name":"Cabrini Market & Deli","Address":"2907 Glenoaks Blvd","City":"Burbank","State":"California","ZipCode":"91504","Country":"USA","EntityType":"Grocery Store"}},
{"type":"Feature","geometry":{"type":"Point","coordinates":[-74.17084,40.74346]},"properties":{"Name":"Cafe","Address":"33 Washington St","City":"Newark","State":"New Jersey","ZipCode":"07102","Country":"USA","EntityType":"Restaurant"}},
{"type":"Feature","geometry":{"type":"Point","coordinates":[-82.63475,27.76945]},"properties":{"Name":"Cafe","Address":"100 2nd Ave","City":"St Petersburg","State":"Florida","ZipCode":"33701","Country":"USA","EntityType":"Restaurant"}},
{"type":"Feature","geometry":{"type":"Point","coordinates":[-117.7257,33.59374]},"properties":{"Name":"Cafe Aliso","Address":"8 Argonaut Dr","City":"Aliso Viejo","State":"California","ZipCode":"92656","Country":"USA","EntityType":"Restaurant"}},
{"type":"Feature","geometry":{"type":"Point","coordinates":[-93.16011,44.83238]},"properties":{"Name":"Cafe Chili Peppers","Address":"1282 Town Centre Dr","City":"Eagan","State":"Minnesota","ZipCode":"55123","Country":"USA","EntityType":"Restaurant"}},
{"type":"Feature","geometry":{"type":"Point","coordinates":[-77.53323,39.73883]},"properties":{"Name":"Cafe del Sol","Address":"11119 Buchanan Trl","City":"Washington Twp","State":"Pennsylvania","ZipCode":"17268","Country":"USA","EntityType":"Restaurant"}},
{"type":"Feature","geometry":{"type":"Point","coordinates":[-121.38971,36.83758]},"properties":{"Name":"Cafe Ella","Address":"1709 Airline Hwy","City":"Hollister","State":"California","ZipCode":"95023","Country":"USA","EntityType":"Restaurant"}},
{"type":"Feature","geometry":{"type":"Point","coordinates":[-118.38362,34.06464]},"properties":{"Name":"Cafe Flore","Address":"214 Robertson Blvd","City":"Beverly Hills","State":"California","ZipCode":"90211","Country":"USA","EntityType":"Restaurant"}},
{"type":"Feature","geometry":{"type":"Point","coordinates":[-75.09001,39.9222]},"properties":{"Name":"Cafe II","Address":"1848 White Horse Pike","City":"Camden","State":"New Jersey","ZipCode":"08103","Country":"USA","EntityType":"Restaurant"}},
{"type":"Feature","geometry":{"type":"Point","coordinates":[-75.28026,40.03775]},"properties":{"Name":"Cafe MMM","Address":"353 Righters Mill Rd","City":"Lower Merion Twp","State":"Pennsylvania","ZipCode":"19035","Country":"USA","EntityType":"Restaurant"}},
{"type":"Feature","geometry":{"type":"Point","coordinates":[-82.22645,34.93755]},"properties":{"Name":"Cafe Mundo","Address":"202 Trade St","City":"Greer","State":"South Carolina","ZipCode":"29651","Country":"USA","EntityType":"Restaurant"}},
{"type":"Feature","geometry":{"type":"Point","coordinates":[-70.77595,43.04846]},"properties":{"Name":"Cafe Nostimo","Address":"72 Mirona Rd","City":"Portsmouth","State":"New Hampshire","ZipCode":"03801","Country":"USA","EntityType":"Restaurant"}},
{"type":"Feature","geometry":{"type":"Point","coordinates":[-75.6524,40.32073]},"properties":{"Name":"Cafe on the Lake","Address":"2289 Farmington Ave","City":"Douglass Twp","State":"Pennsylvania","ZipCode":"19512","Country":"USA","EntityType":"Restaurant"}},
{"type":"Feature","geometry":{"type":"Point","coordinates":[-82.33969,34.89789]},"properties":{"Name":"Cafe Paulista Grille","Address":"2703 Wade Hampton Blvd","City":"Uninc Greenville County","State":"South Carolina","ZipCode":"29615","Country":"USA","EntityType":"Restaurant"}},
{"type":"Feature","geometry":{"type":"Point","coordinates":[-75.12597,40.05526]},"properties":{"Name":"Cafe Soho","Address":"468 Cheltenham Ave","City":"Philadelphia","State":"Pennsylvania","ZipCode":"19126","Country":"USA","EntityType":"Restaurant"}},
{"type":"Feature","geometry":{"type":"Point","coordinates":[-122.13778,37.42195]},"properties":{"Name":"Cafe Soulstice","Address":"440 Portage Ave","City":"Palo Alto","State":"California","ZipCode":"94306","Country":"USA","EntityType":"Restaurant"}},
{"type":"Feature","geometry":{"type":"Point","coordinates":[-90.39114,38.4178]},"properties":{"Name":"Cafe Trieste","Address":"2000 Richardson Rd","City":"Arnold","State":"Missouri","ZipCode":"63010","Country":"USA","EntityType":"Restaurant"}},
{"type":"Feature","geometry":{"type":"Point","coordinates":[-107.88016,37.27508]},"properties":{"Name":"Cairo Cafe","Address":"1050 Main Ave","City":"Durango","State":"Colorado","ZipCode":"81301","Country":"USA","EntityType":"Restaurant"}},
{"type":"Feature","geometry":{"type":"Point","coordinates":[-97.11464,32.72084]},"properties":{"Name":"Cajun Corner","Address":"1515 Cooper St","City":"Arlington","State":"Texas","ZipCode":"76010","Country":"USA","EntityType":"Restaurant"}},
{"type":"Feature","geometry":{"type":"Point","coordinates":[-71.03428,42.37819]},"properties":{"Name":"Calderon Market","Address":"140 Princeton St","City":"Boston","State":"Massachusetts","ZipCode":"02128","Country":"USA","EntityType":"Grocery Store"}},
{"type":"Feature","geometry":{"type":"Point","coordinates":[-119.82904,39.5136]},"properties":{"Name":"California Avenue Deli","Address":"1201 California Ave","City":"Reno","State":"Nevada","ZipCode":"89509","Country":"USA","EntityType":"Restaurant"}},
{"type":"Feature","geometry":{"type":"Point","coordinates":[-97.72697,30.40061]},"properties":{"Name":"California Pizza Kitchen","Address":"3401 Esperanza Xing","City":"Austin","State":"Texas","ZipCode":"78758","Country":"USA","EntityType":"Restaurant"}},
{"type":"Feature","geometry":{"type":"Point","coordinates":[-115.17254,36.06853]},"properties":{"Name":"California Pizza Kitchen","Address":"6659 Las Vegas Blvd","City":"Uninc Clark County","State":"Nevada","ZipCode":"89119","Country":"USA","EntityType":"Restaurant"}},
{"type":"Feature","geometry":{"type":"Point","coordinates":[-86.63606,35.09476]},"properties":{"Name":"Camargo Bar B Que","Address":"65 McDeal Rd","City":"Uninc Lincoln County","State":"Tennessee","ZipCode":"37334","Country":"USA","EntityType":"Restaurant"}},
{"type":"Feature","geometry":{"type":"Point","coordinates":[-88.42952,42.08334]},"properties":{"Name":"Cambridge Lakes Charter School","Address":"815 Campus Dr","City":"Pingree Grove","State":"Illinois","ZipCode":"60140","Country":"USA","EntityType":"School"}},
{"type":"Feature","geometry":{"type":"Point","coordinates":[-86.49649,40.61983]},"properties":{"Name":"Camden Grocery & Meats","Address":"5217 County Road 150 E Rd","City":"Uninc Carroll County","State":"Indiana","ZipCode":"46917","Country":"USA","EntityType":"Grocery Store"}},
{"type":"Feature","geometry":{"type":"Point","coordinates":[-84.24969,33.88555]},"properties":{"Name":"Camilles Sidewalk Cafe","Address":"3499 Chamblee Tucker Rd","City":"Uninc Dekalb County","State":"Georgia","ZipCode":"30341","Country":"USA","EntityType":"Restaurant"}},
{"type":"Feature","geometry":{"type":"Point","coordinates":[-82.39861,34.85161]},"properties":{"Name":"Camille's Sidewalk Cafe","Address":"101 Main St","City":"Greenville","State":"South Carolina","ZipCode":"29601","Country":"USA","EntityType":"Restaurant"}},
{"type":"Feature","geometry":{"type":"Point","coordinates":[-73.93111,41.718]},"properties":{"Name":"Campus Deli","Address":"11 Marist Dr","City":"Poughkeepsie, Town of","State":"New York","ZipCode":"12601","Country":"USA","EntityType":"Restaurant"}},
{"type":"Feature","geometry":{"type":"Point","coordinates":[-78.39453,35.64793]},"properties":{"Name":"Can Caterpillar","Address":"2500 NC Highway 42 St","City":"Uninc Johnston County","State":"North Carolina","ZipCode":"27527","Country":"USA","EntityType":"Restaurant"}},
{"type":"Feature","geometry":{"type":"Point","coordinates":[-82.34865,28.18743]},"properties":{"Name":"Cantina Laredo","Address":"2000 Piazza Ave","City":"Uninc Pasco County","State":"Florida","ZipCode":"33543","Country":"USA","EntityType":"Restaurant"}},
{"type":"Feature","geometry":{"type":"Point","coordinates":[-71.12753,42.39504]},"properties":{"Name":"Capone Foods Cambridge","Address":"2285 Massachusetts Ave","City":"Cambridge","State":"Massachusetts","ZipCode":"02140","Country":"USA","EntityType":"Grocery Store"}},
{"type":"Feature","geometry":{"type":"Point","coordinates":[-95.45055,29.74152]},"properties":{"Name":"Capone's","Address":"4304 Westheimer Rd","City":"Houston","State":"Texas","ZipCode":"77027","Country":"USA","EntityType":"Restaurant"}},
{"type":"Feature","geometry":{"type":"Point","coordinates":[-76.35752,36.80886]},"properties":{"Name":"Captain D's","Address":"3911 Victory Blvd","City":"Portsmouth","State":"Virginia","ZipCode":"23701","Country":"USA","EntityType":"Restaurant"}},
{"type":"Feature","geometry":{"type":"Point","coordinates":[-77.5805,37.44371]},"properties":{"Name":"Captain D's","Address":"10013 Hull Street Rd","City":"Uninc Chesterfield County","State":"Virginia","ZipCode":"23236","Country":"USA","EntityType":"Restaurant"}},
{"type":"Feature","geometry":{"type":"Point","coordinates":[-110.92686,32.25824]},"properties":{"Name":"Caravan Mideastern Foods","Address":"2817 Country Club Rd","City":"Tucson","State":"Arizona","ZipCode":"85716","Country":"USA","EntityType":"Grocery Store"}},
{"type":"Feature","geometry":{"type":"Point","coordinates":[-73.75419,40.59648]},"properties":{"Name":"Caribbean Hut","Address":"2-61 Beach 20th St","City":"New York","State":"New York","ZipCode":"11691","Country":"USA","EntityType":"Restaurant"}},
{"type":"Feature","geometry":{"type":"Point","coordinates":[-73.83758,40.86593]},"properties":{"Name":"Caridad & Louie Restaurant","Address":"1660 Gun Hill Rd","City":"New York","State":"New York","ZipCode":"10469","Country":"USA","EntityType":"Restaurant"}},
{"type":"Feature","geometry":{"type":"Point","coordinates":[-73.8179,40.68869]},"properties":{"Name":"Carifesta Restaurant","Address":"126-15 Liberty Ave","City":"New York","State":"New York","ZipCode":"11419","Country":"USA","EntityType":"Restaurant"}},
{"type":"Feature","geometry":{"type":"Point","coordinates":[-85.08016,42.60703]},"properties":{"Name":"Carl's Market","Address":"999 Reed St","City":"Nashville","State":"Michigan","ZipCode":"49073","Country":"USA","EntityType":"Grocery Store"}},
{"type":"Feature","geometry":{"type":"Point","coordinates":[-82.40197,40.0495]},"properties":{"Name":"Carmen's Pizza","Address":"106 National Dr","City":"Newark","State":"Ohio","ZipCode":"43055","Country":"USA","EntityType":"Restaurant"}},
{"type":"Feature","geometry":{"type":"Point","coordinates":[-119.12603,46.20764]},"properties":{"Name":"Carmine's Italian Restaurant","Address":"525 1st Ave","City":"Kennewick","State":"Washington","ZipCode":"99336","Country":"USA","EntityType":"Restaurant"}},
{"type":"Feature","geometry":{"type":"Point","coordinates":[-95.27777,29.70061]},"properties":{"Name":"Carniceria Aquaralientes","Address":"2809 Broadway St","City":"Houston","State":"Texas","ZipCode":"77017","Country":"USA","EntityType":"Grocery Store"}},
{"type":"Feature","geometry":{"type":"Point","coordinates":[-114.34796,34.48972]},"properties":{"Name":"Carniceria El Corral","Address":"537 Lake Havasu Ave","City":"Lake Havasu City","State":"Arizona","ZipCode":"86403","Country":"USA","EntityType":"Grocery Store"}},
{"type":"Feature","geometry":{"type":"Point","coordinates":[-84.48319,39.28262]},"properties":{"Name":"Carniceria Marabatio","Address":"328 Northland Blvd","City":"Springdale","State":"Ohio","ZipCode":"45246","Country":"USA","EntityType":"Grocery Store"}},
{"type":"Feature","geometry":{"type":"Point","coordinates":[-95.68314,29.84958]},"properties":{"Name":"Carniceria Taqueria Irapuato","Address":"5222 Barker Cypress Rd","City":"Uninc Harris County","State":"Texas","ZipCode":"77084","Country":"USA","EntityType":"Grocery Store"}},
{"type":"Feature","geometry":{"type":"Point","coordinates":[-105.0771,40.56518]},"properties":{"Name":"Carnicirea las Delecias","Address":"1705 College Ave","City":"Fort Collins","State":"Colorado","ZipCode":"80525","Country":"USA","EntityType":"Grocery Store"}},
{"type":"Feature","geometry":{"type":"Point","coordinates":[-74.93113,39.89821]},"properties":{"Name":"Carollo's Family Restaurant","Address":"200 Route 73 Pike","City":"Evesham Twp","State":"New Jersey","ZipCode":"08053","Country":"USA","EntityType":"Restaurant"}},
{"type":"Feature","geometry":{"type":"Point","coordinates":[-80.28803,25.70346]},"properties":{"Name":"Carrabba's Italian Grill","Address":"5829 73rd St","City":"South Miami","State":"Florida","ZipCode":"33143","Country":"USA","EntityType":"Restaurant"}},
{"type":"Feature","geometry":{"type":"Point","coordinates":[-82.28702,27.8936]},"properties":{"Name":"Carvel","Address":"117 Bloomingdale Ave","City":"Uninc Hillsborough County","State":"Florida","ZipCode":"33511","Country":"USA","EntityType":"Restaurant"}},
{"type":"Feature","geometry":{"type":"Point","coordinates":[-87.06416,35.20554]},"properties":{"Name":"Casa Blanca","Address":"1674 College St","City":"Pulaski","State":"Tennessee","ZipCode":"38478","Country":"USA","EntityType":"Restaurant"}},
{"type":"Feature","geometry":{"type":"Point","coordinates":[-118.99383,35.33948]},"properties":{"Name":"Casa Loma Market","Address":"602 Casa Loma Dr","City":"Uninc Kern County","State":"California","ZipCode":"93307","Country":"USA","EntityType":"Grocery Store"}},
{"type":"Feature","geometry":{"type":"Point","coordinates":[-73.8838,40.74706]},"properties":{"Name":"Casa Rivera Grocery","Address":"40-15 82nd St","City":"New York","State":"New York","ZipCode":"11373","Country":"USA","EntityType":"Grocery Store"}},
{"type":"Feature","geometry":{"type":"Point","coordinates":[-95.39997,41.30494]},"properties":{"Name":"Casey's Carry Out Pizza","Address":"205 Brown St","City":"Oakland","State":"Iowa","ZipCode":"51560","Country":"USA","EntityType":"Restaurant"}},
{"type":"Feature","geometry":{"type":"Point","coordinates":[-77.1895,40.1141]},"properties":{"Name":"Cassell's Grille","Address":"5 Pine St","City":"Mt Holly Springs","State":"Pennsylvania","ZipCode":"17065","Country":"USA","EntityType":"Restaurant"}},
{"type":"Feature","geometry":{"type":"Point","coordinates":[-73.9534,40.74488]},"properties":{"Name":"Cassino","Address":"47-18 Vernon Blvd","City":"New York","State":"New York","ZipCode":"11101","Country":"USA","EntityType":"Restaurant"}},
{"type":"Feature","geometry":{"type":"Point","coordinates":[-71.30246,42.63391]},"properties":{"Name":"Cavaleiro's","Address":"573 Lawrence St","City":"Lowell","State":"Massachusetts","ZipCode":"01852","Country":"USA","EntityType":"Restaurant"}},
{"type":"Feature","geometry":{"type":"Point","coordinates":[-72.54085,40.87215]},"properties":{"Name":"CB's Bar & Grill","Address":"214 Montauk Hwy","City":"Southampton, Town of","State":"New York","ZipCode":"11946","Country":"USA","EntityType":"Restaurant"}},
{"type":"Feature","geometry":{"type":"Point","coordinates":[-84.11321,39.74286]},"properties":{"Name":"Cedarland Bakery & Restaurant","Address":"4515 Linden Ave","City":"Riverside","State":"Ohio","ZipCode":"45432","Country":"USA","EntityType":"Restaurant"}},
{"type":"Feature","geometry":{"type":"Point","coordinates":[-73.84425,40.89686]},"properties":{"Name":"Central Deli","Address":"2020 Pitman Ave","City":"New York","State":"New York","ZipCode":"10466","Country":"USA","EntityType":"Grocery Store"}},
{"type":"Feature","geometry":{"type":"Point","coordinates":[-117.83256,33.68882]},"properties":{"Name":"Chae Bahn","Address":"2750 Alton Pky","City":"Irvine","State":"California","ZipCode":"92606","Country":"USA","EntityType":"Restaurant"}},
{"type":"Feature","geometry":{"type":"Point","coordinates":[-81.67711,27.95656]},"properties":{"Name":"Chain of Lakes Elementary School","Address":"7001 CR-653 Rd","City":"Winter Haven","State":"Florida","ZipCode":"33884","Country":"USA","EntityType":"School"}},
{"type":"Feature","geometry":{"type":"Point","coordinates":[-94.53516,39.05476]},"properties":{"Name":"Champs Lounge & Grill","Address":"3900 Jackson Ave","City":"Kansas City","State":"Missouri","ZipCode":"64130","Country":"USA","EntityType":"Restaurant"}},
{"type":"Feature","geometry":{"type":"Point","coordinates":[-74.00302,40.73436]},"properties":{"Name":"Charles","Address":"234 4th St","City":"New York","State":"New York","ZipCode":"10014","Country":"USA","EntityType":"Restaurant"}},
{"type":"Feature","geometry":{"type":"Point","coordinates":[-119.3139,36.31]},"properties":{"Name":"Charley's","Address":"2243 Mooney Blvd","City":"Visalia","State":"California","ZipCode":"93277","Country":"USA","EntityType":"Restaurant"}},
{"type":"Feature","geometry":{"type":"Point","coordinates":[-92.3749,38.96593]},"properties":{"Name":"Charley's","Address":"2300 Bernadette Dr","City":"Columbia","State":"Missouri","ZipCode":"65203","Country":"USA","EntityType":"Restaurant"}},
{"type":"Feature","geometry":{"type":"Point","coordinates":[-80.74756,32.23509]},"properties":{"Name":"Charley's Crab","Address":"2 Hudson Rd","City":"Hilton Head Island","State":"South Carolina","ZipCode":"29926","Country":"USA","EntityType":"Restaurant"}},
{"type":"Feature","geometry":{"type":"Point","coordinates":[-75.97101,40.34357]},"properties":{"Name":"Charlie Browns","Address":"1085 Woodland Rd","City":"Wyomissing","State":"Pennsylvania","ZipCode":"19610","Country":"USA","EntityType":"Restaurant"}},
{"type":"Feature","geometry":{"type":"Point","coordinates":[-74.59639,39.31256]},"properties":{"Name":"Charlie's","Address":"800 Shore Rd","City":"Somers Point","State":"New Jersey","ZipCode":"08244","Country":"USA","EntityType":"Restaurant"}},
{"type":"Feature","geometry":{"type":"Point","coordinates":[-88.23975,36.03816]},"properties":{"Name":"Charlie's BBQ","Address":"30875 Broad St","City":"Bruceton","State":"Tennessee","ZipCode":"38317","Country":"USA","EntityType":"Restaurant"}},
{"type":"Feature","geometry":{"type":"Point","coordinates":[-90.1038,29.92933]},"properties":{"Name":"Charlie's Steak House","Address":"4510 Dryades St","City":"New Orleans","State":"Louisiana","ZipCode":"70115","Country":"USA","EntityType":"Restaurant"}},
{"type":"Feature","geometry":{"type":"Point","coordinates":[-122.98358,44.95844]},"properties":{"Name":"Charter Schools NCLB","Address":"2450 Lancaster Dr","City":"Salem","State":"Oregon","ZipCode":"97305","Country":"USA","EntityType":"School"}},
{"type":"Feature","geometry":{"type":"Point","coordinates":[-93.98332,32.84917]},"properties":{"Name":"Chavos Mexican Restaurant","Address":"1030 Pine St","City":"Vivian","State":"Louisiana","ZipCode":"71082","Country":"USA","EntityType":"Restaurant"}},
{"type":"Feature","geometry":{"type":"Point","coordinates":[-83.40312,34.86613]},"properties":{"Name":"Checkers","Address":"786 Highway 441 St","City":"Clayton","State":"Georgia","ZipCode":"30525","Country":"USA","EntityType":"Restaurant"}},
{"type":"Feature","geometry":{"type":"Point","coordinates":[-95.36489,29.75714]},"properties":{"Name":"Chef","Address":"930 Main St","City":"Houston","State":"Texas","ZipCode":"77002","Country":"USA","EntityType":"Restaurant"}},
{"type":"Feature","geometry":{"type":"Point","coordinates":[-84.28252,33.89576]},"properties":{"Name":"Chef Liu","Address":"5221 Buford Hwy","City":"Doraville","State":"Georgia","ZipCode":"30340","Country":"USA","EntityType":"Restaurant"}},
{"type":"Feature","geometry":{"type":"Point","coordinates":[-84.50816,38.04949]},"properties":{"Name":"Chef Sears Cafeteria","Address":"812 Maxwell St","City":"Lexington","State":"Kentucky","ZipCode":"40508","Country":"USA","EntityType":"Restaurant"}},
{"type":"Feature","geometry":{"type":"Point","coordinates":[-74.44777,39.35203]},"properties":{"Name":"Chelsea Prime","Address":"111 Chelsea Ave","City":"Atlantic City","State":"New Jersey","ZipCode":"08401","Country":"USA","EntityType":"Restaurant"}},
{"type":"Feature","geometry":{"type":"Point","coordinates":[-92.3625,36.35191]},"properties":{"Name":"Chen's Garden","Address":"1310 Eastside Centre Ct","City":"Mountain Home","State":"Arkansas","ZipCode":"72653","Country":"USA","EntityType":"Restaurant"}},
{"type":"Feature","geometry":{"type":"Point","coordinates":[-76.26038,36.88582]},"properties":{"Name":"Chen's Kitchen","Address":"3538 Tidewater Dr","City":"Norfolk","State":"Virginia","ZipCode":"23509","Country":"USA","EntityType":"Restaurant"}},
{"type":"Feature","geometry":{"type":"Point","coordinates":[-101.05199,39.36235]},"properties":{"Name":"Chester's Chicken","Address":"700 Horton Ave","City":"Uninc Thomas County","State":"Kansas","ZipCode":"67701","Country":"USA","EntityType":"Restaurant"}},
{"type":"Feature","geometry":{"type":"Point","coordinates":[-87.68425,41.96871]},"properties":{"Name":"Chicago Ale House","Address":"2200 Lawrence Ave","City":"Chicago","State":"Illinois","ZipCode":"60625","Country":"USA","EntityType":"Restaurant"}},
{"type":"Feature","geometry":{"type":"Point","coordinates":[-93.13417,35.26114]},"properties":{"Name":"Chicken Mart","Address":"1808 Arkansas Ave","City":"Russellville","State":"Arkansas","ZipCode":"72801","Country":"USA","EntityType":"Grocery Store"}},
{"type":"Feature","geometry":{"type":"Point","coordinates":[-94.67278,38.88384]},"properties":{"Name":"Chick-fil-A","Address":"7500 135th St","City":"Overland Park","State":"Kansas","ZipCode":"66223","Country":"USA","EntityType":"Restaurant"}},
{"type":"Feature","geometry":{"type":"Point","coordinates":[-80.08072,26.80813]},"properties":{"Name":"Chick-fil-A","Address":"1262 Northlake Blvd","City":"Lake Park","State":"Florida","ZipCode":"33403","Country":"USA","EntityType":"Restaurant"}},
{"type":"Feature","geometry":{"type":"Point","coordinates":[-88.67362,32.3654]},"properties":{"Name":"Chick-fil-A","Address":"109 Frontage Rd","City":"Meridian","State":"Mississippi","ZipCode":"39301","Country":"USA","EntityType":"Restaurant"}},
{"type":"Feature","geometry":{"type":"Point","coordinates":[-81.39006,31.16002]},"properties":{"Name":"Chick-fil-A","Address":"2205 Demere Rd","City":"Uninc Glynn County","State":"Georgia","ZipCode":"31522","Country":"USA","EntityType":"Restaurant"}},
{"type":"Feature","geometry":{"type":"Point","coordinates":[-77.50407,38.2333]},"properties":{"Name":"Chick-fil-A","Address":"9900 Southpoint Pky","City":"Uninc Spotsylvania County","State":"Virginia","ZipCode":"22407","Country":"USA","EntityType":"Restaurant"}},
{"type":"Feature","geometry":{"type":"Point","coordinates":[-75.6639,40.05412]},"properties":{"Name":"Chick-fil-A","Address":"211 Eagleview Blvd","City":"Uwchlan Twp","State":"Pennsylvania","ZipCode":"19341","Country":"USA","EntityType":"Restaurant"}},
{"type":"Feature","geometry":{"type":"Point","coordinates":[-82.66093,38.48536]},"properties":{"Name":"Chick-fil-A","Address":"410 River Hill Dr","City":"Uninc Boyd County","State":"Kentucky","ZipCode":"41101","Country":"USA","EntityType":"Restaurant"}},
{"type":"Feature","geometry":{"type":"Point","coordinates":[-81.82823,30.19668]},"properties":{"Name":"Chick-fil-A","Address":"9630 Applecross Rd","City":"Jacksonville","State":"Florida","ZipCode":"32222","Country":"USA","EntityType":"Restaurant"}},
{"type":"Feature","geometry":{"type":"Point","coordinates":[-71.66757,44.04512]},"properties":{"Name":"Chieng Gardens","Address":"165 Main St","City":"Lincoln, Town of","State":"New Hampshire","ZipCode":"03251","Country":"USA","EntityType":"Restaurant"}},
{"type":"Feature","geometry":{"type":"Point","coordinates":[-97.11482,32.67253]},"properties":{"Name":"China Buffet","Address":"4515 Matlock Rd","City":"Arlington","State":"Texas","ZipCode":"76018","Country":"USA","EntityType":"Restaurant"}},
{"type":"Feature","geometry":{"type":"Point","coordinates":[-97.56532,35.35056]},"properties":{"Name":"China Delight","Address":"11802 May Ave","City":"Oklahoma City","State":"Oklahoma","ZipCode":"73170","Country":"USA","EntityType":"Restaurant"}},
{"type":"Feature","geometry":{"type":"Point","coordinates":[-73.7353,40.71313]},"properties":{"Name":"China Delights","Address":"218-82 Hempstead Ave","City":"New York","State":"New York","ZipCode":"11429","Country":"USA","EntityType":"Restaurant"}},
{"type":"Feature","geometry":{"type":"Point","coordinates":[-122.22904,40.17067]},"properties":{"Name":"China Doll Chinese Restaurant","Address":"182 Main St","City":"Red Bluff","State":"California","ZipCode":"96080","Country":"USA","EntityType":"Restaurant"}},
{"type":"Feature","geometry":{"type":"Point","coordinates":[-97.93258,35.03398]},"properties":{"Name":"China Dream","Address":"1718 1st St","City":"Chickasha","State":"Oklahoma","ZipCode":"73018","Country":"USA","EntityType":"Restaurant"}},
{"type":"Feature","geometry":{"type":"Point","coordinates":[-75.56816,39.66311]},"properties":{"Name":"China East","Address":"726 Ferry Cut Off St","City":"New Castle","State":"Delaware","ZipCode":"19720","Country":"USA","EntityType":"Restaurant"}},
{"type":"Feature","geometry":{"type":"Point","coordinates":[-71.64938,42.8361]},"properties":{"Name":"China Garden","Address":"49 Union Sq","City":"Milford, Town of","State":"New Hampshire","ZipCode":"03055","Country":"USA","EntityType":"Restaurant"}},
{"type":"Feature","geometry":{"type":"Point","coordinates":[-90.51794,38.6258]},"properties":{"Name":"China Garden","Address":"229 Lamp and Lantern Vlg","City":"Town and Country","State":"Missouri","ZipCode":"63017","Country":"USA","EntityType":"Restaurant"}},
{"type":"Feature","geometry":{"type":"Point","coordinates":[-71.34178,42.67944]},"properties":{"Name":"China Maxim","Address":"1734 Lakeview Ave","City":"Dracut, Town of","State":"Massachusetts","ZipCode":"01826","Country":"USA","EntityType":"Restaurant"}},
{"type":"Feature","geometry":{"type":"Point","coordinates":[-115.35097,36.1591]},"properties":{"Name":"China One","Address":"11710 Charleston Blvd","City":"Las Vegas","State":"Nevada","ZipCode":"89135","Country":"USA","EntityType":"Restaurant"}},
{"type":"Feature","geometry":{"type":"Point","coordinates":[-119.21103,34.25803]},"properties":{"Name":"China Palace Restaurant","Address":"1795 Victoria Ave","City":"Ventura","State":"California","ZipCode":"93003","Country":"USA","EntityType":"Restaurant"}},
{"type":"Feature","geometry":{"type":"Point","coordinates":[-85.28422,34.59347]},"properties":{"Name":"China Restaurant","Address":"32 Trion Road Spur","City":"Uninc Walker County","State":"Georgia","ZipCode":"30753","Country":"USA","EntityType":"Restaurant"}},
{"type":"Feature","geometry":{"type":"Point","coordinates":[-73.84581,40.64964]},"properties":{"Name":"China Star","Address":"84-36 164th Ave","City":"New York","State":"New York","ZipCode":"11414","Country":"USA","EntityType":"Restaurant"}},
{"type":"Feature","geometry":{"type":"Point","coordinates":[-95.80712,29.78366]},"properties":{"Name":"China Super Buffet","Address":"2001 Katy Mills Blvd","City":"Katy","State":"Texas","ZipCode":"77494","Country":"USA","EntityType":"Restaurant"}},
{"type":"Feature","geometry":{"type":"Point","coordinates":[-78.81043,35.80641]},"properties":{"Name":"China Town","Address":"9601 Chapel Hill Rd","City":"Morrisville","State":"North Carolina","ZipCode":"27560","Country":"USA","EntityType":"Restaurant"}},
{"type":"Feature","geometry":{"type":"Point","coordinates":[-80.3668,27.35138]},"properties":{"Name":"China Town II","Address":"6522 Selvitz Rd","City":"Port St Lucie","State":"Florida","ZipCode":"34983","Country":"USA","EntityType":"Restaurant"}},
{"type":"Feature","geometry":{"type":"Point","coordinates":[-73.07148,41.67399]},