RackID,Address,Ward,Community Area,Community Name,TotInstall,Latitude,Longitude,Historical,F12,F13,LOCATION
3492,1391 N Milwaukee Ave,1,24,West Town,1,41.907164,-87.672159,1,41.907164,-87.672159,"(41.907164, -87.672159)"
1284,1554 E 55th St,4,41,Hyde Park,1,41.795283,-87.587632,1,41.795283,-87.587632,"(41.795283, -87.587632)"
5945,1001 N Damen Ave,1,24,West Town,1,41.899661,-87.677036,1,41.899661,-87.677036,"(41.899661, -87.677036)"
3241,1932 W Lawrence Ave,47,4,Lincoln Square,2,41.96891,-87.677444,1,41.96891,-87.677444,"(41.96891, -87.677444)"
1349,2157 W 19th St,25,31,Lower West Side,1,41.855659,-87.679748,1,41.855659,-87.679748,"(41.855659, -87.679748)"
2901,1656 W Grace St,47,6,Lake View,1,41.950736,-87.670669,1,41.950736,-87.670669,"(41.950736, -87.670669)"
3511,2107 W Monroe St,2,28,Near West Side,1,41.879836,-87.679424,1,41.879836,-87.679424,"(41.879836, -87.679424)"
3780,2025 W Roscoe St,32,5,North Center,2,41.94306,-87.67937,1,41.94306,-87.67937,"(41.94306, -87.67937)"
119,1501 W Howard St,49,1,Rogers Park,3,42.01924,-87.668418,0,42.01924,-87.668418,"(42.01924, -87.668418)"
483,1943 W North Ave,1,24,West Town,2,41.910339,-87.676622,0,41.910339,-87.676622,"(41.910339, -87.676622)"
1340,2211 W 18th Pl,25,31,Lower West Side,1,41.85655,-87.681317,1,41.85655,-87.681317,"(41.85655, -87.681317)"
2605,200 W Division St,43,8,Near North Side,1,41.90396,-87.634688,1,41.90396,-87.634688,"(41.90396, -87.634688)"
4993,1365 E 53rd St,4,41,Hyde Park,1,41.799399,-87.592391,1,41.799399,-87.592391,"(41.799399, -87.592391)"
251,1650 W Foster Ave,40,77,Edgewater,3,41.976289,-87.670864,0,41.976289,-87.670864,"(41.976289, -87.670864)"
6311,201 S Michigan Ave,42,32,Loop,3,41.879487,-87.624195,1,41.879487,-87.624195,"(41.879487, -87.624195)"
4118,1147 N Western Ave,1,24,West Town,3,41.902305,-87.686813,1,41.902305,-87.686813,"(41.902305, -87.686813)"
2894,2 E Garfield Blvd,3,40,Washington Park,1,41.794757,-87.625519,1,41.794757,-87.625519,"(41.794757, -87.625519)"
7419,10248 S Ewing Ave,10,52,East Side,1,41.709081,-87.535447,0,41.709081,-87.535447,"(41.709081, -87.535447)"
4473,1800 W Lunt Ave,49,1,Rogers Park,2,42.009089,-87.676002,1,42.009089,-87.676002,"(42.009089, -87.676002)"
1516,1800 E 79th St,8,43,South Shore,1,41.75163,-87.580739,1,41.75163,-87.580739,"(41.75163, -87.580739)"
899,1465 S Michigan Ave,2,33,Near South Side,1,41.862619,-87.623868,0,41.862619,-87.623868,"(41.862619, -87.623868)"
3438,101 S Michigan Ave,42,32,Loop,2,41.880788,-87.624191,1,41.880788,-87.624191,"(41.880788, -87.624191)"
2449,2009 N Clybourn Ave,43,7,Lincoln Park,1,41.917976,-87.659107,1,41.917976,-87.659107,"(41.917976, -87.659107)"
876,213 N Morgan St,27,28,Near West Side,1,41.885806,-87.651946,0,41.885806,-87.651946,"(41.885806, -87.651946)"
4938,2245 N McVicker Ave,37,19,Belmont Cragin,1,41.921251,-87.776662,1,41.921251,-87.776662,"(41.921251, -87.776662)"
4933,1234 N Monticello Ave,26,23,Humboldt Park,3,41.903415,-87.717946,1,41.903415,-87.717946,"(41.903415, -87.717946)"
3324,210 S Loomis St,2,28,Near West Side,2,41.878755,-87.66211,1,41.878755,-87.66211,"(41.878755, -87.66211)"
5261,1735 W Harrison St,2,28,Near West Side,1,41.874058,-87.670545,1,41.874058,-87.670545,"(41.874058, -87.670545)"
4040,1134 W Washington Blvd,27,28,Near West Side,3,41.883124,-87.655743,1,41.883124,-87.655743,"(41.883124, -87.655743)"
6518,2222 W North Ave,1,24,West Town,1,41.910493,-87.683225,0,41.910493,-87.683225,"(41.910493, -87.683225)"
4150,1830 W Wilson Ave,47,4,Lincoln Square,1,41.965294,-87.675129,1,41.965294,-87.675129,"(41.965294, -87.675129)"
5245,1526 E 55th St,4,41,Hyde Park,1,41.79538,-87.588061,1,41.79538,-87.588061,"(41.79538, -87.588061)"
4074,1563 N Wells St,43,8,Near North Side,1,41.910364,-87.634518,1,41.910364,-87.634518,"(41.910364, -87.634518)"
2907,1127 W Grand Ave,27,24,West Town,1,41.890955,-87.655565,1,41.890955,-87.655565,"(41.890955, -87.655565)"
1512,1364 W 79th St,17,71,Auburn Gresham,2,41.750522,-87.657252,1,41.750522,-87.657252,"(41.750522, -87.657252)"
5504,1655 W Division St,1,24,West Town,1,41.903158,-87.669425,1,41.903158,-87.669425,"(41.903158, -87.669425)"
776,1104 S Wabash Ave,2,32,Loop,3,41.869004,-87.626027,0,41.869004,-87.626027,"(41.869004, -87.626027)"
1231,1554 N Milwaukee Ave,1,24,West Town,1,41.909668,-87.676586,0,41.909668,-87.676586,"(41.909668, -87.676586)"
295,1927 W North Ave,1,24,West Town,2,41.910364,-87.676022,0,41.910364,-87.676022,"(41.910364, -87.676022)"
2272,13000 S Carondolet Ave,10,55,Hegewisch,5,41.65899,-87.549728,1,41.65899,-87.549728,"(41.65899, -87.549728)"
2063,1722 N Ashland Ave,1,24,West Town,1,41.912883,-87.667888,1,41.912883,-87.667888,"(41.912883, -87.667888)"
6423,161 N Clark St,42,32,Loop,1,41.884636,-87.630761,1,41.884636,-87.630761,"(41.884636, -87.630761)"
2132,1225 W Belmont Ave,32,6,Lake View,3,41.939649,-87.659566,1,41.939649,-87.659566,"(41.939649, -87.659566)"
4026,110 S Wacker Dr,2,32,Loop,1,41.880421,-87.63715,1,41.880421,-87.63715,"(41.880421, -87.63715)"
2396,1601 N Clark St,43,7,Lincoln Park,4,41.91139,-87.631547,1,41.91139,-87.631547,"(41.91139, -87.631547)"
651,1 E Jackson Blvd,2,32,Loop,1,41.8781,-87.627495,0,41.8781,-87.627495,"(41.8781, -87.627495)"
2317,1800 W Chicago Ave,1,24,West Town,1,41.896132,-87.672417,1,41.896132,-87.672417,"(41.896132, -87.672417)"
2413,150 N Clark St,42,32,Loop,3,41.884264,-87.631096,1,41.884264,-87.631096,"(41.884264, -87.631096)"
6290,1324 W Wabansia Ave,32,24,West Town,6,41.914016,-87.66183,1,41.914016,-87.66183,"(41.914016, -87.66183)"
738,1401 W Devon Ave,40,77,Edgewater,2,41.998037,-87.665635,0,41.998037,-87.665635,"(41.998037, -87.665635)"
553,1910 S State St,3,33,Near South Side,4,41.856414,-87.62732,0,41.856414,-87.62732,"(41.856414, -87.62732)"
4055,1007 W Webster Ave,32,7,Lincoln Park,1,41.921553,-87.653795,1,41.921553,-87.653795,"(41.921553, -87.653795)"
3223,208 S LaSalle St,42,32,Loop,2,41.879235,-87.632319,1,41.879235,-87.632319,"(41.879235, -87.632319)"
4565,209 W 79th St,17,44,Chatham,1,41.750712,-87.629888,1,41.750712,-87.629888,"(41.750712, -87.629888)"
6114,1738 E 87th St,8,45,Avalon Park,1,41.736189,-87.581973,1,41.736189,-87.581973,"(41.736189, -87.581973)"
2889,220 W Garfield Blvd,3,37,Fuller Park,4,41.794675,-87.631345,1,41.794675,-87.631345,"(41.794675, -87.631345)"
1419,1236 E 53rd St,4,41,Hyde Park,1,41.799597,-87.595992,1,41.799597,-87.595992,"(41.799597, -87.595992)"
309,114 N Wabash Ave,42,32,Loop,1,41.883641,-87.626403,0,41.883641,-87.626403,"(41.883641, -87.626403)"
6093,1801 W 99th St,19,72,Beverly,1,41.713832,-87.667331,1,41.713832,-87.667331,"(41.713832, -87.667331)"
4646,2235 N Milwaukee Ave,1,22,Logan Square,1,41.92173,-87.695394,1,41.92173,-87.695394,"(41.92173, -87.695394)"
3659,12 N Pine Ave,29,25,Austin,3,41.880655,-87.763381,1,41.880655,-87.763381,"(41.880655, -87.763381)"
5454,1620 W Lawrence Ave,47,3,Uptown,1,41.969009,-87.669868,1,41.969009,-87.669868,"(41.969009, -87.669868)"
663,1043 N California Ave,1,24,West Town,1,41.900244,-87.696955,0,41.900244,-87.696955,"(41.900244, -87.696955)"
1357,1814 W 23rd St,25,31,Lower West Side,1,41.850848,-87.671411,1,41.850848,-87.671411,"(41.850848, -87.671411)"
666,1301 S Michigan Ave,2,33,Near South Side,1,41.865599,-87.623926,0,41.865599,-87.623926,"(41.865599, -87.623926)"
744,180 N Stetson Ave,42,32,Loop,1,41.885255,-87.622468,0,41.885255,-87.622468,"(41.885255, -87.622468)"
4269,13338 S Brandon Ave,10,55,Hegewisch,1,41.652927,-87.546085,1,41.652927,-87.546085,"(41.652927, -87.546085)"
6765,1466 N Halsted St,32,8,Near North Side,2,41.907945,-87.648365,0,41.907945,-87.648365,"(41.907945, -87.648365)"
2614,1640 N Drake Ave,26,23,Humboldt Park,2,41.910791,-87.715119,1,41.910791,-87.715119,"(41.910791, -87.715119)"
3141,211 S Laflin St,2,28,Near West Side,3,41.878703,-87.66421,1,41.878703,-87.66421,"(41.878703, -87.66421)"
1039,200 S Wacker Dr,2,32,Loop,4,41.8792,-87.636997,0,41.8792,-87.636997,"(41.8792, -87.636997)"
5273,1014 S Michigan Ave,2,32,Loop,2,41.869864,-87.624292,1,41.869864,-87.624292,"(41.869864, -87.624292)"
4495,1412 W 18th St,25,31,Lower West Side,1,41.857987,-87.661839,1,41.857987,-87.661839,"(41.857987, -87.661839)"
1136,1440 W 18th St,25,31,Lower West Side,1,41.857942,-87.662855,0,41.857942,-87.662855,"(41.857942, -87.662855)"
3528,1902 W Montrose Ave,47,4,Lincoln Square,1,41.961631,-87.676232,1,41.961631,-87.676232,"(41.961631, -87.676232)"
4451,10740 S Calhoun Ave,10,51,South Deering,2,41.700168,-87.562148,1,41.700168,-87.562148,"(41.700168, -87.562148)"
861,1111 N Wells St,43,8,Near North Side,1,41.902446,-87.634294,0,41.902446,-87.634294,"(41.902446, -87.634294)"
4276,1707 W Division St,1,24,West Town,1,41.903215,-87.670347,1,41.903215,-87.670347,"(41.903215, -87.670347)"
1124,2043 W Roscoe St,32,5,North Center,2,41.943053,-87.679955,0,41.943053,-87.679955,"(41.943053, -87.679955)"
5327,2001 W Addison St,47,5,North Center,2,41.946768,-87.678691,1,41.946768,-87.678691,"(41.946768, -87.678691)"
7009,2300 S Kedzie Ave,24,30,South Lawndale,1,41.849814,-87.705331,0,41.849814,-87.705331,"(41.849814, -87.705331)"
6339,2120 S Canal St,25,34,Armour Square,1,41.853903,-87.638759,1,41.853903,-87.638759,"(41.853903, -87.638759)"
144,1630 W Montrose Ave,47,3,Uptown,1,41.961771,-87.669798,0,41.961771,-87.669798,"(41.961771, -87.669798)"
2463,200 S Columbus Dr,42,32,Loop,4,41.88083,-87.620807,1,41.88083,-87.620807,"(41.88083, -87.620807)"
4917,2000 E 88th St,8,48,Calumet Heights,2,41.73523,-87.575659,1,41.73523,-87.575659,"(41.73523, -87.575659)"
3925,1120 W Taylor St,25,28,Near West Side,1,41.869587,-87.654982,1,41.869587,-87.654982,"(41.869587, -87.654982)"
3091,2100 S Keeler Ave,24,29,North Lawndale,1,41.853295,-87.729786,1,41.853295,-87.729786,"(41.853295, -87.729786)"
3121,1449 S Kolin Ave,24,29,North Lawndale,2,41.861493,-87.733404,1,41.861493,-87.733404,"(41.861493, -87.733404)"
42,1710 W Addison St,47,6,Lake View,4,41.947091,-87.671735,0,41.947091,-87.671735,"(41.947091, -87.671735)"
4285,2058 W Chicago Ave,32,24,West Town,1,41.896049,-87.678499,1,41.896049,-87.678499,"(41.896049, -87.678499)"
5019,1 E Jackson Blvd,2,32,Loop,2,41.8781,-87.627495,1,41.8781,-87.627495,"(41.8781, -87.627495)"
4500,2222 N Western Ave,1,22,Logan Square,2,41.922317,-87.687694,1,41.922317,-87.687694,"(41.922317, -87.687694)"
2280,1545 N Central Ave,37,25,Austin,1,41.908445,-87.765698,1,41.908445,-87.765698,"(41.908445, -87.765698)"
1577,1808 W 99th St,19,72,Beverly,1,41.71397,-87.667798,1,41.71397,-87.667798,"(41.71397, -87.667798)"
4023,121 W Wacker Dr,42,32,Loop,1,41.886589,-87.63164,1,41.886589,-87.63164,"(41.886589, -87.63164)"
2640,10155 S Ewing Ave,10,52,East Side,1,41.710922,-87.535094,1,41.710922,-87.535094,"(41.710922, -87.535094)"
5484,1103 N Ashland Ave,1,24,West Town,1,41.901649,-87.667333,1,41.901649,-87.667333,"(41.901649, -87.667333)"
6165,211 E Chicago Ave,42,8,Near North Side,1,41.89665,-87.622085,1,41.89665,-87.622085,"(41.89665, -87.622085)"
1504,1767 E 79th St,8,46,South Chicago,2,41.751494,-87.580771,1,41.751494,-87.580771,"(41.751494, -87.580771)"
1177,1151 W Webster Ave,32,7,Lincoln Park,1,41.921509,-87.6575,0,41.921509,-87.6575,"(41.921509, -87.6575)"
5355,1865 N Milwaukee Ave,1,22,Logan Square,2,41.915658,-87.68534,1,41.915658,-87.68534,"(41.915658, -87.68534)"
6191,1548 N Clark St,42,8,Near North Side,1,41.910608,-87.631838,1,41.910608,-87.631838,"(41.910608, -87.631838)"
3667,1201 W Pratt Blvd,49,1,Rogers Park,1,42.005401,-87.661198,1,42.005401,-87.661198,"(42.005401, -87.661198)"
4973,1400 S Jefferson St,2,28,Near West Side,2,41.863215,-87.642223,1,41.863215,-87.642223,"(41.863215, -87.642223)"
6104,1300 E 47th St,4,39,Kenwood,1,41.808808,-87.592871,1,41.808808,-87.592871,"(41.808808, -87.592871)"
4319,2274 N Lincoln Ave,43,7,Lincoln Park,1,41.92299,-87.645587,1,41.92299,-87.645587,"(41.92299, -87.645587)"
2610,2050 W Division St,1,24,West Town,1,41.903286,-87.678557,1,41.903286,-87.678557,"(41.903286, -87.678557)"
4069,1350 N Wells St,43,8,Near North Side,2,41.906999,-87.634755,1,41.906999,-87.634755,"(41.906999, -87.634755)"
5146,2200 N Oakley Ave,32,22,Logan Square,1,41.921982,-87.685592,1,41.921982,-87.685592,"(41.921982, -87.685592)"
7209,1110 W 35th St,11,60,Bridgeport,1,41.830787,-87.653817,0,41.830787,-87.653817,"(41.830787, -87.653817)"
2891,141 E Garfield Blvd,20,40,Washington Park,1,41.794247,-87.621758,1,41.794247,-87.621758,"(41.794247, -87.621758)"
2505,1919 W Cullerton St,25,31,Lower West Side,1,41.854808,-87.674056,1,41.854808,-87.674056,"(41.854808, -87.674056)"
1995,1060 W Addison St,44,6,Lake View,1,41.947232,-87.656416,1,41.947232,-87.656416,"(41.947232, -87.656416)"
4239,1340 W 71st Pl,17,67,West Englewood,3,41.764202,-87.658003,1,41.764202,-87.658003,"(41.764202, -87.658003)"
3621,2001 N Orchard St,43,7,Lincoln Park,3,41.918318,-87.646035,1,41.918318,-87.646035,"(41.918318, -87.646035)"
4850,1659 W North Ave,1,24,West Town,2,41.910463,-87.669429,1,41.910463,-87.669429,"(41.910463, -87.669429)"
1198,1531 N Damen Ave,1,24,West Town,2,41.909145,-87.677284,0,41.909145,-87.677284,"(41.909145, -87.677284)"
5992,1800 S Ashland Ave,25,31,Lower West Side,1,41.85769,-87.666292,1,41.85769,-87.666292,"(41.85769, -87.666292)"
3257,2019 W Lawrence Ave,47,4,Lincoln Square,1,41.968616,-87.679761,1,41.968616,-87.679761,"(41.968616, -87.679761)"
3777,2022 W Roscoe St,32,5,North Center,2,41.94333,-87.679313,1,41.94333,-87.679313,"(41.94333, -87.679313)"
3071,1 N Karlov Ave,28,26,West Garfield Park,1,41.880839,-87.727945,1,41.880839,-87.727945,"(41.880839, -87.727945)"
836,2207 W Montrose Ave,47,5,North Center,1,41.96125,-87.684159,0,41.96125,-87.684159,"(41.96125, -87.684159)"
3664,1713 W Polk St,2,28,Near West Side,1,41.871429,-87.669891,1,41.871429,-87.669891,"(41.871429, -87.669891)"
5050,2258 W Erie St,1,24,West Town,1,41.893202,-87.68328,1,41.893202,-87.68328,"(41.893202, -87.68328)"
4727,2000 S Pulaski Rd,24,29,North Lawndale,1,41.853963,-87.724954,1,41.853963,-87.724954,"(41.853963, -87.724954)"
2301,216 W Cermak Rd,25,34,Armour Square,2,41.853061,-87.632491,1,41.853061,-87.632491,"(41.853061, -87.632491)"
1565,2116 W 95th St,19,72,Beverly,2,41.721229,-87.675431,1,41.721229,-87.675431,"(41.721229, -87.675431)"
1437,1156 E 56th St,5,41,Hyde Park,2,41.793383,-87.597777,1,41.793383,-87.597777,"(41.793383, -87.597777)"
3206,1155 S Lake Shore Dr,2,33,Near South Side,3,41.868447,-87.617585,1,41.868447,-87.617585,"(41.868447, -87.617585)"
6331,1000 N Lake Shore Dr,42,8,Near North Side,1,41.900858,-87.624232,1,41.900858,-87.624232,"(41.900858, -87.624232)"
3321,2148 N Long Ave,37,19,Belmont Cragin,2,41.919731,-87.761099,1,41.919731,-87.761099,"(41.919731, -87.761099)"
2918,1758 W Greenleaf Ave,49,1,Rogers Park,1,42.010329,-87.674549,1,42.010329,-87.674549,"(42.010329, -87.674549)"
4336,2236 N Rockwell St,1,22,Logan Square,3,41.922801,-87.692963,1,41.922801,-87.692963,"(41.922801, -87.692963)"
410,1924 W North Ave,32,24,West Town,2,41.910631,-87.675968,0,41.910631,-87.675968,"(41.910631, -87.675968)"
6997,131 S Wabash Ave,42,32,Loop,1,41.880345,-87.625941,0,41.880345,-87.625941,"(41.880345, -87.625941)"
4272,13209 S Baltimore Ave,10,55,Hegewisch,1,41.655201,-87.546942,1,41.655201,-87.546942,"(41.655201, -87.546942)"
1041,1030 N Orleans St,27,8,Near North Side,1,41.901406,-87.637471,0,41.901406,-87.637471,"(41.901406, -87.637471)"
4651,223 N Keeler Ave,28,26,West Garfield Park,0,41.884051,-87.730475,1,41.884051,-87.730475,"(41.884051, -87.730475)"
6384,126 E Chestnut St,42,8,Near North Side,1,41.898509,-87.624677,1,41.898509,-87.624677,"(41.898509, -87.624677)"
3457,180 S Michigan Ave,42,32,Loop,1,41.879797,-87.624608,1,41.879797,-87.624608,"(41.879797, -87.624608)"
2131,1500 W Belmont Ave,44,6,Lake View,2,41.939862,-87.666453,1,41.939862,-87.666453,"(41.939862, -87.666453)"
5178,1431 N Leamington Ave,37,25,Austin,1,41.906512,-87.75444,1,41.906512,-87.75444,"(41.906512, -87.75444)"
6408,19 N Wells St,42,32,Loop,1,41.882202,-87.633652,1,41.882202,-87.633652,"(41.882202, -87.633652)"
871,123 N Wacker Dr,42,32,Loop,1,41.883944,-87.636685,0,41.883944,-87.636685,"(41.883944, -87.636685)"
5492,1825 W Irving Park Rd,47,5,North Center,1,41.954053,-87.674818,1,41.954053,-87.674818,"(41.954053, -87.674818)"
3549,1507 W Morse Ave,49,1,Rogers Park,2,42.007738,-87.668173,1,42.007738,-87.668173,"(42.007738, -87.668173)"
5811,1935 W Chicago Ave,1,24,West Town,2,41.895882,-87.675955,1,41.895882,-87.675955,"(41.895882, -87.675955)"
2593,1851 W Division St,1,24,West Town,2,41.903092,-87.674143,1,41.903092,-87.674143,"(41.903092, -87.674143)"
1337,1420 W 17th St,25,31,Lower West Side,1,41.858914,-87.661987,1,41.858914,-87.661987,"(41.858914, -87.661987)"
3103,2240 N Kilbourn Ave,31,20,Hermosa,1,41.921786,-87.739089,1,41.921786,-87.739089,"(41.921786, -87.739089)"
4282,1949 N Hoyne Ave,32,22,Logan Square,3,41.917221,-87.679895,1,41.917221,-87.679895,"(41.917221, -87.679895)"
3262,1455 N Leamington Ave,37,25,Austin,2,41.906866,-87.754447,1,41.906866,-87.754447,"(41.906866, -87.754447)"
6517,1566 N Damen Ave,1,24,West Town,1,41.909712,-87.677631,0,41.909712,-87.677631,"(41.909712, -87.677631)"
28,2135 N Rockwell St,1,22,Logan Square,1,41.920838,-87.692548,0,41.920838,-87.692548,"(41.920838, -87.692548)"
388,1601 S Morgan St,25,31,Lower West Side,1,41.859661,-87.650735,0,41.859661,-87.650735,"(41.859661, -87.650735)"
6308,1702 N Milwaukee Ave,32,24,West Town,1,41.912257,-87.680573,1,41.912257,-87.680573,"(41.912257, -87.680573)"
3405,11301 S Michigan Ave,9,49,Roseland,1,41.688872,-87.620879,1,41.688872,-87.620879,"(41.688872, -87.620879)"
2613,13100 S Doty Ave,9,54,Riverdale,2,41.657627,-87.591959,1,41.657627,-87.591959,"(41.657627, -87.591959)"
4840,1957 W Addison St,47,5,North Center,1,41.946748,-87.677464,1,41.946748,-87.677464,"(41.946748, -87.677464)"
6601,10337 S Kedzie Ave,19,74,Mount Greenwood,1,41.705444,-87.701232,0,41.705444,-87.701232,"(41.705444, -87.701232)"
662,2030 W Chicago Ave,32,24,West Town,1,41.896062,-87.677949,0,41.896062,-87.677949,"(41.896062, -87.677949)"
3027,1821 S Indiana Ave,2,33,Near South Side,1,41.857461,-87.622127,1,41.857461,-87.622127,"(41.857461, -87.622127)"
4653,1600 N Lake Shore Dr,43,8,Near North Side,2,41.913555,-87.623275,1,41.913555,-87.623275,"(41.913555, -87.623275)"
5184,201 E 111th St,9,49,Roseland,9,41.692535,-87.617711,1,41.692535,-87.617711,"(41.692535, -87.617711)"
620,1402 W Grand Ave,27,24,West Town,2,41.891151,-87.66252,0,41.891151,-87.66252,"(41.891151, -87.66252)"
1227,1516 N Milwaukee Ave,1,24,West Town,1,41.909224,-87.6759,0,41.909224,-87.6759,"(41.909224, -87.6759)"
6998,105 S Wabash Ave,42,32,Loop,1,41.880608,-87.625951,0,41.880608,-87.625951,"(41.880608, -87.625951)"
4514,1729 S Halsted St,25,31,Lower West Side,1,41.85817,-87.646558,1,41.85817,-87.646558,"(41.85817, -87.646558)"
4125,11828 S Western Ave,19,75,Morgan Park,1,41.678349,-87.680919,1,41.678349,-87.680919,"(41.678349, -87.680919)"
5840,1801 S Indiana Ave,2,33,Near South Side,2,41.857653,-87.622132,1,41.857653,-87.622132,"(41.857653, -87.622132)"
4891,2234 N Western Ave,1,22,Logan Square,1,41.922766,-87.687711,1,41.922766,-87.687711,"(41.922766, -87.687711)"
3128,1556 N Kostner Ave,37,23,Humboldt Park,2,41.908816,-87.736463,1,41.908816,-87.736463,"(41.908816, -87.736463)"
4445,10538 S Langley Ave,9,50,Pullman,2,41.702472,-87.606477,1,41.702472,-87.606477,"(41.702472, -87.606477)"
5491,1635 W Division St,1,24,West Town,1,41.90317,-87.668937,1,41.90317,-87.668937,"(41.90317, -87.668937)"
3934,1840 S Throop St,25,31,Lower West Side,1,41.856795,-87.659005,1,41.856795,-87.659005,"(41.856795, -87.659005)"
4650,1750 W Balmoral Ave,40,77,Edgewater,1,41.979904,-87.673296,1,41.979904,-87.673296,"(41.979904, -87.673296)"
6916,2252 N Western Ave,1,22,Logan Square,1,41.922892,-87.687758,0,41.922892,-87.687758,"(41.922892, -87.687758)"
971,100 S Wacker Dr,2,32,Loop,1,41.880514,-87.637106,0,41.880514,-87.637106,"(41.880514, -87.637106)"
1328,200 E 115th St,9,49,Roseland,2,41.685475,-87.617893,1,41.685475,-87.617893,"(41.685475, -87.617893)"
6356,2101 N Hoyne Ave,32,22,Logan Square,2,41.920092,-87.680056,1,41.920092,-87.680056,"(41.920092, -87.680056)"
3445,150 N Michigan Ave,42,32,Loop,2,41.884603,-87.624604,1,41.884603,-87.624604,"(41.884603, -87.624604)"
4633,2001 N Western Ave,32,22,Logan Square,1,41.917621,-87.687326,1,41.917621,-87.687326,"(41.917621, -87.687326)"
413,1427 E 60th St,20,42,Woodlawn,2,41.785941,-87.590871,0,41.785941,-87.590871,"(41.785941, -87.590871)"
3063,1523 W Jarvis Ave,49,1,Rogers Park,1,42.015888,-87.668733,1,42.015888,-87.668733,"(42.015888, -87.668733)"
1445,1200 E 63rd St,20,42,Woodlawn,2,41.780621,-87.596033,1,41.780621,-87.596033,"(41.780621, -87.596033)"
3755,10 S Riverside Plz,2,28,Near West Side,1,41.881674,-87.638874,1,41.881674,-87.638874,"(41.881674, -87.638874)"
4676,1619 W Edgewater Ave,40,77,Edgewater,1,41.985797,-87.670427,1,41.985797,-87.670427,"(41.985797, -87.670427)"
5021,155 N Michigan Ave,42,32,Loop,2,41.884663,-87.624265,1,41.884663,-87.624265,"(41.884663, -87.624265)"
5820,1670 W Division St,1,24,West Town,1,41.903329,-87.66998,1,41.903329,-87.66998,"(41.903329, -87.66998)"
3399,11133 S Michigan Ave,9,49,Roseland,1,41.692044,-87.620836,1,41.692044,-87.620836,"(41.692044, -87.620836)"
6254,212 E 83rd St,6,44,Chatham,1,41.743869,-87.619242,1,41.743869,-87.619242,"(41.743869, -87.619242)"
5495,2145 W Irving Park Rd,47,5,North Center,1,41.953963,-87.682725,1,41.953963,-87.682725,"(41.953963, -87.682725)"
3965,214 S Wabash Ave,42,32,Loop,1,41.879235,-87.626261,1,41.879235,-87.626261,"(41.879235, -87.626261)"
6316,1960 N Damen Ave,32,22,Logan Square,1,41.917312,-87.677784,1,41.917312,-87.677784,"(41.917312, -87.677784)"
5837,2110 E 72nd St,5,43,South Shore,1,41.763562,-87.574219,1,41.763562,-87.574219,"(41.763562, -87.574219)"
1453,20 E 63rd St,20,40,Washington Park,2,41.780158,-87.624668,1,41.780158,-87.624668,"(41.780158, -87.624668)"
2913,1119 W Granville Ave,48,77,Edgewater,2,41.994383,-87.658816,1,41.994383,-87.658816,"(41.994383, -87.658816)"
7075,222 W Superior St,42,8,Near North Side,1,41.895736,-87.63459,0,41.895736,-87.63459,"(41.895736, -87.63459)"
3525,201 W Monroe St,2,32,Loop,5,41.880581,-87.63394,1,41.880581,-87.63394,"(41.880581, -87.63394)"
3452,11224 S Michigan Ave,9,49,Roseland,1,41.690099,-87.621192,1,41.690099,-87.621192,"(41.690099, -87.621192)"
6043,1329 W Wilson Ave,46,3,Uptown,1,41.965181,-87.663385,1,41.965181,-87.663385,"(41.965181, -87.663385)"
7425,1979 W Monterey Ave,19,75,Morgan Park,1,41.691691,-87.670161,0,41.691691,-87.670161,"(41.691691, -87.670161)"
4041,2045 W Washington Blvd,2,28,Near West Side,2,41.883007,-87.677797,1,41.883007,-87.677797,"(41.883007, -87.677797)"
1341,1201 W 18th St,25,31,Lower West Side,1,41.857856,-87.65656,1,41.857856,-87.65656,"(41.857856, -87.65656)"
6412,230 W Washington St,42,32,Loop,1,41.883341,-87.634366,1,41.883341,-87.634366,"(41.883341, -87.634366)"
6086,100 N Riverside Plz,42,28,Near West Side,4,41.883322,-87.638644,1,41.883322,-87.638644,"(41.883322, -87.638644)"
6912,2039 N Western Ave,32,22,Logan Square,1,41.918723,-87.68727,0,41.918723,-87.68727,"(41.918723, -87.68727)"
4805,1858 W Wabansia Ave,32,24,West Town,1,41.912476,-87.674374,1,41.912476,-87.674374,"(41.912476, -87.674374)"
579,2204 W North Ave,1,24,West Town,2,41.910507,-87.68264,0,41.910507,-87.68264,"(41.910507, -87.68264)"
2504,1824 W Cullerton St,25,31,Lower West Side,2,41.855113,-87.671735,1,41.855113,-87.671735,"(41.855113, -87.671735)"
1098,2122 W Taylor St,2,28,Near West Side,1,41.869205,-87.679101,0,41.869205,-87.679101,"(41.869205, -87.679101)"
3639,2015 S Peoria St,25,31,Lower West Side,1,41.855085,-87.647992,1,41.855085,-87.647992,"(41.855085, -87.647992)"
6407,10 S Riverside Plz,2,28,Near West Side,1,41.881674,-87.638874,1,41.881674,-87.638874,"(41.881674, -87.638874)"
3745,1845 W Rice St,1,24,West Town,1,41.896762,-87.673306,1,41.896762,-87.673306,"(41.896762, -87.673306)"
3146,140 W Lake St,42,32,Loop,1,41.885916,-87.632189,1,41.885916,-87.632189,"(41.885916, -87.632189)"
3000,11071 S Hoyne Ave,19,75,Morgan Park,2,41.692458,-87.674035,1,41.692458,-87.674035,"(41.692458, -87.674035)"
6168,116 S Michigan Ave,42,32,Loop,2,41.880621,-87.624573,1,41.880621,-87.624573,"(41.880621, -87.624573)"
5337,2127 W Belmont Ave,32,5,North Center,1,41.939403,-87.68155,1,41.939403,-87.68155,"(41.939403, -87.68155)"
5870,1000 N California Ave,26,24,West Town,1,41.899386,-87.696928,1,41.899386,-87.696928,"(41.899386, -87.696928)"
5463,1700 W Lawrence Ave,47,3,Uptown,1,41.968971,-87.671192,1,41.968971,-87.671192,"(41.968971, -87.671192)"
1987,200 W Adams St,2,32,Loop,1,41.879492,-87.63392,1,41.879492,-87.63392,"(41.879492, -87.63392)"
4205,1439 W 18th St,25,31,Lower West Side,2,41.857751,-87.662825,1,41.857751,-87.662825,"(41.857751, -87.662825)"
4979,1901 S Loomis St,25,31,Lower West Side,1,41.855962,-87.66113,1,41.855962,-87.66113,"(41.855962, -87.66113)"
2940,1 S Halsted St,27,28,Near West Side,1,41.881643,-87.647206,1,41.881643,-87.647206,"(41.881643, -87.647206)"
3449,221 S Michigan Ave,42,32,Loop,1,41.87928,-87.624073,1,41.87928,-87.624073,"(41.87928, -87.624073)"
2115,13303 S Baltimore Ave,10,55,Hegewisch,2,41.653444,-87.547004,1,41.653444,-87.547004,"(41.653444, -87.547004)"
2944,2262 N Halsted St,43,7,Lincoln Park,2,41.922858,-87.648866,1,41.922858,-87.648866,"(41.922858, -87.648866)"
3565,2000 W North Ave,32,24,West Town,3,41.910507,-87.677593,1,41.910507,-87.677593,"(41.910507, -87.677593)"
4259,10532 S Ewing Ave,10,52,East Side,1,41.703904,-87.535443,1,41.703904,-87.535443,"(41.703904, -87.535443)"
3447,224 S Michigan Ave,42,32,Loop,1,41.879164,-87.624594,1,41.879164,-87.624594,"(41.879164, -87.624594)"
1574,2154 E 97th St,7,51,South Deering,1,41.718099,-87.572677,1,41.718099,-87.572677,"(41.718099, -87.572677)"
222,1914 W Chicago Ave,1,24,West Town,2,41.896105,-87.675223,0,41.896105,-87.675223,"(41.896105, -87.675223)"
5368,1435 N Wells St,43,8,Near North Side,1,41.90824,-87.634451,1,41.90824,-87.634451,"(41.90824, -87.634451)"
4061,150 N Wells St,42,32,Loop,1,41.884533,-87.63399,1,41.884533,-87.63399,"(41.884533, -87.63399)"
1305,115 W 108th St,34,49,Roseland,1,41.696967,-87.626143,1,41.696967,-87.626143,"(41.696967, -87.626143)"
1063,1276 N Clybourn Ave,27,8,Near North Side,1,41.905237,-87.641797,0,41.905237,-87.641797,"(41.905237, -87.641797)"
3784,1011 N Rush St,42,8,Near North Side,3,41.901144,-87.627509,1,41.901144,-87.627509,"(41.901144, -87.627509)"
2092,1936 W Augusta Blvd,1,24,West Town,2,41.8997,-87.676128,1,41.8997,-87.676128,"(41.8997, -87.676128)"
1256,1854 W North Ave,32,24,West Town,1,41.910661,-87.674265,0,41.910661,-87.674265,"(41.910661, -87.674265)"
5879,1337 N Wells St,43,8,Near North Side,1,41.906867,-87.634403,1,41.906867,-87.634403,"(41.906867, -87.634403)"
3331,1932 W Lunt Ave,49,1,Rogers Park,2,42.009019,-87.678854,1,42.009019,-87.678854,"(42.009019, -87.678854)"
4403,1354 W Wabansia Ave,32,24,West Town,2,41.913872,-87.662274,1,41.913872,-87.662274,"(41.913872, -87.662274)"
6000,1521 S Wabash Ave,2,33,Near South Side,1,41.861399,-87.625478,1,41.861399,-87.625478,"(41.861399, -87.625478)"
3775,2032 W Roscoe St,32,5,North Center,2,41.943285,-87.679822,1,41.943285,-87.679822,"(41.943285, -87.679822)"
1202,1586 N Damen Ave,1,24,West Town,2,41.909922,-87.6776,0,41.909922,-87.6776,"(41.909922, -87.6776)"
6132,1422 N Ashland Ave,1,24,West Town,2,41.907525,-87.667698,1,41.907525,-87.667698,"(41.907525, -87.667698)"
6358,1458 W Taylor St,25,28,Near West Side,2,41.869467,-87.663035,1,41.869467,-87.663035,"(41.869467, -87.663035)"
4871,1501 N Greenview Ave,32,24,West Town,2,41.908971,-87.665035,1,41.908971,-87.665035,"(41.908971, -87.665035)"
5860,1018 N California Ave,26,24,West Town,1,41.899832,-87.696992,1,41.899832,-87.696992,"(41.899832, -87.696992)"
748,11320 S Halsted St,34,75,Morgan Park,1,41.688218,-87.6425,0,41.688218,-87.6425,"(41.688218, -87.6425)"
4776,1926 N Halsted St,43,7,Lincoln Park,1,41.916715,-87.648645,1,41.916715,-87.648645,"(41.916715, -87.648645)"
6252,1900 S Halsted St,25,31,Lower West Side,1,41.856619,-87.64668,1,41.856619,-87.64668,"(41.856619, -87.64668)"
3878,2101 N Southport Ave,43,7,Lincoln Park,1,41.91995,-87.662998,1,41.91995,-87.662998,"(41.91995, -87.662998)"
1121,2009 W Roscoe St,32,5,North Center,1,41.943069,-87.67885,0,41.943069,-87.67885,"(41.943069, -87.67885)"
4661,1600 N Wells St,43,7,Lincoln Park,1,41.911242,-87.634822,1,41.911242,-87.634822,"(41.911242, -87.634822)"
4432,11413 S Eggleston Ave,34,49,Roseland,3,41.686642,-87.633547,1,41.686642,-87.633547,"(41.686642, -87.633547)"
1254,1800 W North Ave,32,24,West Town,1,41.910648,-87.672728,0,41.910648,-87.672728,"(41.910648, -87.672728)"
4833,1056 W Webster Ave,32,7,Lincoln Park,2,41.921806,-87.655167,1,41.921806,-87.655167,"(41.921806, -87.655167)"
3770,201 E Roosevelt Rd,2,33,Near South Side,3,41.86743,-87.622471,1,41.86743,-87.622471,"(41.86743, -87.622471)"
1557,1701 W 95th St,19,72,Beverly,1,41.72021,-87.666523,1,41.72021,-87.666523,"(41.72021, -87.666523)"
4648,1755 W Division St,1,24,West Town,1,41.903126,-87.671631,1,41.903126,-87.671631,"(41.903126, -87.671631)"
5336,1601 W Armitage Ave,32,22,Logan Square,2,41.917769,-87.667729,1,41.917769,-87.667729,"(41.917769, -87.667729)"
4761,1313 E 60th St,20,42,Woodlawn,1,41.785919,-87.594205,1,41.785919,-87.594205,"(41.785919, -87.594205)"
2143,1218 W Belmont Ave,44,6,Lake View,3,41.939916,-87.659792,1,41.939916,-87.659792,"(41.939916, -87.659792)"
1073,1035 N Western Ave,1,24,West Town,2,41.900437,-87.686778,0,41.900437,-87.686778,"(41.900437, -87.686778)"
6189,2060 N Cleveland Ave,43,7,Lincoln Park,2,41.919348,-87.641442,1,41.919348,-87.641442,"(41.919348, -87.641442)"
4024,151 E Wacker Dr,42,32,Loop,3,41.888048,-87.623514,1,41.888048,-87.623514,"(41.888048, -87.623514)"
2395,1558 N Clark St,42,8,Near North Side,2,41.910703,-87.631841,1,41.910703,-87.631841,"(41.910703, -87.631841)"
6301,13260 S Brandon Ave,10,55,Hegewisch,1,41.654445,-87.546081,1,41.654445,-87.546081,"(41.654445, -87.546081)"
4679,230 S LaSalle St,42,32,Loop,2,41.878718,-87.632313,1,41.878718,-87.632313,"(41.878718, -87.632313)"
1013,1375 W Lake St,27,28,Near West Side,2,41.88528,-87.66159,0,41.88528,-87.66159,"(41.88528, -87.66159)"
1093,1530 N Damen Ave,1,24,West Town,1,41.909181,-87.677554,0,41.909181,-87.677554,"(41.909181, -87.677554)"
3441,2 N Michigan Ave,42,32,Loop,1,41.882229,-87.624612,1,41.882229,-87.624612,"(41.882229, -87.624612)"
6008,1723 S Ashland Ave,25,31,Lower West Side,1,41.858114,-87.666112,1,41.858114,-87.666112,"(41.858114, -87.666112)"
577,2035 N Western Ave,32,22,Logan Square,1,41.91854,-87.687373,0,41.91854,-87.687373,"(41.91854, -87.687373)"
2639,10542 S Ewing Ave,10,52,East Side,1,41.703758,-87.535444,1,41.703758,-87.535444,"(41.703758, -87.535444)"
3716,1 W Quincy St,42,32,Loop,1,41.878611,-87.629992,1,41.878611,-87.629992,"(41.878611, -87.629992)"
3252,1776 W Lawrence Ave,47,3,Uptown,1,41.968969,-87.673528,1,41.968969,-87.673528,"(41.968969, -87.673528)"
2184,1842 S Blue Island Ave,25,31,Lower West Side,1,41.857078,-87.662038,1,41.857078,-87.662038,"(41.857078, -87.662038)"
1249,1930 W Division St,1,24,West Town,2,41.903224,-87.676099,0,41.903224,-87.676099,"(41.903224, -87.676099)"
2157,2205 W Belmont Ave,32,5,North Center,2,41.939371,-87.683545,1,41.939371,-87.683545,"(41.939371, -87.683545)"
4671,1200 N Dearborn Pky,42,8,Near North Side,1,41.904138,-87.630175,1,41.904138,-87.630175,"(41.904138, -87.630175)"
3550,1541 W Morse Ave,49,1,Rogers Park,1,42.007724,-87.668766,1,42.007724,-87.668766,"(42.007724, -87.668766)"
3532,2011 W Montrose Ave,47,5,North Center,2,41.96134,-87.679427,1,41.96134,-87.679427,"(41.96134, -87.679427)"
3016,100 W Illinois St,42,8,Near North Side,1,41.890936,-87.631276,1,41.890936,-87.631276,"(41.890936, -87.631276)"
6909,2117 N Western Ave,32,22,Logan Square,1,41.920374,-87.687304,0,41.920374,-87.687304,"(41.920374, -87.687304)"
4072,1616 N Wells St,43,7,Lincoln Park,3,41.911527,-87.63491,1,41.911527,-87.63491,"(41.911527, -87.63491)"
4034,101 E Walton Pl,42,8,Near North Side,2,41.899864,-87.624928,1,41.899864,-87.624928,"(41.899864, -87.624928)"
4887,1345 W Taylor St,2,28,Near West Side,2,41.869235,-87.66062,1,41.869235,-87.66062,"(41.869235, -87.66062)"
411,1952 W North Ave,32,24,West Town,2,41.910521,-87.676877,0,41.910521,-87.676877,"(41.910521, -87.676877)"
6179,2100 W Belmont Ave,32,5,North Center,2,41.93968,-87.681054,1,41.93968,-87.681054,"(41.93968, -87.681054)"
1558,1644 W 95th St,19,72,Beverly,1,41.721394,-87.663505,1,41.721394,-87.663505,"(41.721394, -87.663505)"
7351,11125 S Halsted St,34,75,Morgan Park,1,41.691609,-87.64211,0,41.691609,-87.64211,"(41.691609, -87.64211)"
2166,1482 W Berwyn Ave,48,77,Edgewater,3,41.978159,-87.667499,1,41.978159,-87.667499,"(41.978159, -87.667499)"
6905,2232 W Armitage Ave,32,22,Logan Square,1,41.917786,-87.683419,0,41.917786,-87.683419,"(41.917786, -87.683419)"
2670,200 N Franklin St,42,32,Loop,3,41.885817,-87.63553,1,41.885817,-87.63553,"(41.885817, -87.63553)"
6262,1548 W Berwyn Ave,40,77,Edgewater,2,41.978135,-87.669002,1,41.978135,-87.669002,"(41.978135, -87.669002)"
7093,120 W 111th St,34,49,Roseland,1,41.692666,-87.626385,0,41.692666,-87.626385,"(41.692666, -87.626385)"
1208,1741 N Damen Ave,32,24,West Town,1,41.913514,-87.677394,0,41.913514,-87.677394,"(41.913514, -87.677394)"
2935,11249 S Halsted St,34,49,Roseland,1,41.689638,-87.642034,1,41.689638,-87.642034,"(41.689638, -87.642034)"
3962,10335 S Vincennes Ave,21,73,Washington Heights,3,41.706016,-87.656118,1,41.706016,-87.656118,"(41.706016, -87.656118)"
3877,2100 N Southport Ave,32,7,Lincoln Park,3,41.919933,-87.663259,1,41.919933,-87.663259,"(41.919933, -87.663259)"
3983,11 N Wabash Ave,42,32,Loop,1,41.882291,-87.62599,1,41.882291,-87.62599,"(41.882291, -87.62599)"
1168,2136 N California Ave,35,22,Logan Square,1,41.920747,-87.697396,0,41.920747,-87.697396,"(41.920747, -87.697396)"
4803,1114 W Belmont Ave,44,6,Lake View,1,41.93996,-87.657066,1,41.93996,-87.657066,"(41.93996, -87.657066)"
5276,225 N Michigan Ave,42,32,Loop,2,41.886106,-87.624358,1,41.886106,-87.624358,"(41.886106, -87.624358)"
6080,121 N LaSalle St,42,32,Loop,14,41.883913,-87.632314,1,41.883913,-87.632314,"(41.883913, -87.632314)"
379,2301 S Lake Shore Dr,2,33,Near South Side,13,41.851357,-87.612402,0,41.851357,-87.612402,"(41.851357, -87.612402)"
1384,2021 W 35th St,11,59,McKinley Park,2,41.830241,-87.67614,1,41.830241,-87.67614,"(41.830241, -87.67614)"
6224,1000 N Mozart St,26,24,West Town,1,41.899422,-87.6982,1,41.899422,-87.6982,"(41.899422, -87.6982)"
3448,11219 S Michigan Ave,9,49,Roseland,4,41.690441,-87.620827,1,41.690441,-87.620827,"(41.690441, -87.620827)"
4845,1969 W Montrose Ave,47,5,North Center,2,41.961299,-87.678214,1,41.961299,-87.678214,"(41.961299, -87.678214)"
4641,1002 N California Ave,26,24,West Town,2,41.899422,-87.69696,1,41.899422,-87.69696,"(41.899422, -87.69696)"
5141,2250 N Clifton Ave,32,7,Lincoln Park,2,41.922627,-87.657317,1,41.922627,-87.657317,"(41.922627, -87.657317)"
3049,1733 W Irving Park Rd,47,6,Lake View,1,41.954156,-87.672789,1,41.954156,-87.672789,"(41.954156, -87.672789)"
5284,111 N Jefferson St,42,28,Near West Side,1,41.883512,-87.642524,1,41.883512,-87.642524,"(41.883512, -87.642524)"
3293,1825 N Lincoln Ave,43,7,Lincoln Park,1,41.915673,-87.634871,1,41.915673,-87.634871,"(41.915673, -87.634871)"
3143,10 W Lake St,42,32,Loop,3,41.885892,-87.628341,1,41.885892,-87.628341,"(41.885892, -87.628341)"
4446,10740 S Calhoun Ave,10,51,South Deering,2,41.700168,-87.562148,1,41.700168,-87.562148,"(41.700168, -87.562148)"
4499,2020 N Oakley Ave,32,22,Logan Square,1,41.91818,-87.685114,1,41.91818,-87.685114,"(41.91818, -87.685114)"
942,200 W Monroe St,2,32,Loop,1,41.880775,-87.633944,0,41.880775,-87.633944,"(41.880775, -87.633944)"
3681,1231 S Pulaski Rd,24,29,North Lawndale,1,41.86551,-87.724954,1,41.86551,-87.724954,"(41.86551, -87.724954)"
3008,160 E Huron St,42,8,Near North Side,3,41.895088,-87.623576,1,41.895088,-87.623576,"(41.895088, -87.623576)"
5876,1254 N Wells St,43,8,Near North Side,1,41.905207,-87.634697,1,41.905207,-87.634697,"(41.905207, -87.634697)"
5810,1039 N Western Ave,1,24,West Town,1,41.90048,-87.686754,1,41.90048,-87.686754,"(41.90048, -87.686754)"
6396,201 N State St,42,32,Loop,1,41.885821,-87.62791,1,41.885821,-87.62791,"(41.885821, -87.62791)"
7081,1917 E 71st St,5,43,South Shore,1,41.76586,-87.578668,0,41.76586,-87.578668,"(41.76586, -87.578668)"
4994,1460 E 53rd St,4,41,Hyde Park,1,41.799667,-87.589853,1,41.799667,-87.589853,"(41.799667, -87.589853)"
6910,2157 N Western Ave,32,22,Logan Square,1,41.921441,-87.687342,0,41.921441,-87.687342,"(41.921441, -87.687342)"
5167,2210 W Pershing Rd,11,59,McKinley Park,2,41.823185,-87.680473,1,41.823185,-87.680473,"(41.823185, -87.680473)"
1423,1500 E 53rd St,4,41,Hyde Park,1,41.799649,-87.588907,1,41.799649,-87.588907,"(41.799649, -87.588907)"
5956,2300 W Armitage Ave,32,22,Logan Square,1,41.91775,-87.685217,1,41.91775,-87.685217,"(41.91775, -87.685217)"
6142,10500 S Michigan Ave,9,49,Roseland,1,41.703134,-87.62085,1,41.703134,-87.62085,"(41.703134, -87.62085)"
2181,2007 S Blue Island Ave,25,31,Lower West Side,1,41.854765,-87.663664,1,41.854765,-87.663664,"(41.854765, -87.663664)"
2154,1338 W Belmont Ave,44,6,Lake View,1,41.939878,-87.662344,1,41.939878,-87.662344,"(41.939878, -87.662344)"
2552,2 N Dearborn St,42,32,Loop,1,41.882077,-87.629503,1,41.882077,-87.629503,"(41.882077, -87.629503)"
3497,1203 N Milwaukee Ave,1,24,West Town,3,41.903518,-87.666531,1,41.903518,-87.666531,"(41.903518, -87.666531)"
4894,1659 N Campbell Ave,1,24,West Town,1,41.911334,-87.689517,1,41.911334,-87.689517,"(41.911334, -87.689517)"
2592,1737 W Division St,1,24,West Town,1,41.903137,-87.671373,1,41.903137,-87.671373,"(41.903137, -87.671373)"
6357,2129 N Milwaukee Ave,1,22,Logan Square,1,41.919895,-87.692153,1,41.919895,-87.692153,"(41.919895, -87.692153)"
6300,11226 S Michigan Ave,9,49,Roseland,1,41.690051,-87.621184,1,41.690051,-87.621184,"(41.690051, -87.621184)"
3391,11500 S Michigan Ave,9,53,West Pullman,1,41.685177,-87.620951,1,41.685177,-87.620951,"(41.685177, -87.620951)"
3955,200 W Van Buren St,2,32,Loop,2,41.876944,-87.633863,1,41.876944,-87.633863,"(41.876944, -87.633863)"
1221,1359 N Milwaukee Ave,1,24,West Town,2,41.906679,-87.671427,0,41.906679,-87.671427,"(41.906679, -87.671427)"
5238,1940 W Irving Park Rd,47,5,North Center,1,41.954312,-87.677262,1,41.954312,-87.677262,"(41.954312, -87.677262)"
6283,10701 S Wentworth Ave,34,49,Roseland,1,41.699711,-87.627957,1,41.699711,-87.627957,"(41.699711, -87.627957)"
3207,1391 S Lake Shore Dr,2,33,Near South Side,3,41.862099,-87.61813,1,41.862099,-87.61813,"(41.862099, -87.61813)"
2929,11046 S Hale Ave,19,75,Morgan Park,2,41.692738,-87.670569,1,41.692738,-87.670569,"(41.692738, -87.670569)"
2374,220 N Clark St,42,32,Loop,2,41.88597,-87.631154,1,41.88597,-87.631154,"(41.88597, -87.631154)"
736,1242 W Addison St,44,6,Lake View,1,41.947257,-87.660606,0,41.947257,-87.660606,"(41.947257, -87.660606)"
1514,1758 W 79th St,17,71,Auburn Gresham,1,41.75043,-87.667583,1,41.75043,-87.667583,"(41.75043, -87.667583)"
2522,1520 N Damen Ave,1,24,West Town,3,41.908999,-87.677466,1,41.908999,-87.677466,"(41.908999, -87.677466)"
5867,1010 S Clinton St,2,28,Near West Side,1,41.869599,-87.640936,1,41.869599,-87.640936,"(41.869599, -87.640936)"
4043,1100 W Washington Blvd,27,28,Near West Side,1,41.883141,-87.65452,1,41.883141,-87.65452,"(41.883141, -87.65452)"
5852,1016 N Ashland Ave,1,24,West Town,1,41.900225,-87.667618,1,41.900225,-87.667618,"(41.900225, -87.667618)"
2150,1300 W Belmont Ave,44,6,Lake View,2,41.93989,-87.66162,1,41.93989,-87.66162,"(41.93989, -87.66162)"
6421,18 S Michigan Ave,42,32,Loop,1,41.881804,-87.624657,1,41.881804,-87.624657,"(41.881804, -87.624657)"
5207,1600 W Armitage Ave,32,22,Logan Square,4,41.91798,-87.668022,1,41.91798,-87.668022,"(41.91798, -87.668022)"
2547,2 S Dearborn St,42,32,Loop,3,41.88186,-87.629562,1,41.88186,-87.629562,"(41.88186, -87.629562)"
4806,1648 W Roscoe St,32,6,Lake View,1,41.943462,-87.670329,1,41.943462,-87.670329,"(41.943462, -87.670329)"
4047,1134 W Washington Blvd,27,28,Near West Side,2,41.883124,-87.655743,1,41.883124,-87.655743,"(41.883124, -87.655743)"
4975,1332 W 18th St,25,31,Lower West Side,1,41.85712,-87.659721,1,41.85712,-87.659721,"(41.85712, -87.659721)"
6385,219 W Chicago Ave,42,8,Near North Side,1,41.896478,-87.634564,1,41.896478,-87.634564,"(41.896478, -87.634564)"
1092,1501 W 18th St,25,31,Lower West Side,1,41.857693,-87.664008,0,41.857693,-87.664008,"(41.857693, -87.664008)"
6293,10040 S Michigan Ave,9,49,Roseland,1,41.711548,-87.620169,1,41.711548,-87.620169,"(41.711548, -87.620169)"
4362,2103 N Lamon Ave,31,19,Belmont Cragin,2,41.918876,-87.748436,1,41.918876,-87.748436,"(41.918876, -87.748436)"
6633,114 S Racine Ave,27,28,Near West Side,1,41.880046,-87.657283,0,41.880046,-87.657283,"(41.880046, -87.657283)"
1498,1613 E 73rd St,8,43,South Shore,2,41.762265,-87.585469,1,41.762265,-87.585469,"(41.762265, -87.585469)"
3045,1800 W Irving Park Rd,47,5,North Center,1,41.954342,-87.674439,1,41.954342,-87.674439,"(41.954342, -87.674439)"
6027,1900 W Polk St,2,28,Near West Side,1,41.871591,-87.673912,1,41.871591,-87.673912,"(41.871591, -87.673912)"
5042,1700 N Halsted St,43,7,Lincoln Park,1,41.912419,-87.648496,1,41.912419,-87.648496,"(41.912419, -87.648496)"
3159,151 W Lake St,42,32,Loop,2,41.885637,-87.632629,1,41.885637,-87.632629,"(41.885637, -87.632629)"
3687,1558 N Pulaski Rd,30,23,Humboldt Park,1,41.909059,-87.726666,1,41.909059,-87.726666,"(41.909059, -87.726666)"
5286,1235 W Randolph St,27,28,Near West Side,2,41.883912,-87.657892,1,41.883912,-87.657892,"(41.883912, -87.657892)"
5372,1343 N California Ave,26,24,West Town,2,41.905887,-87.696778,1,41.905887,-87.696778,"(41.905887, -87.696778)"
2514,1625 N Damen Ave,32,24,West Town,1,41.911176,-87.677311,1,41.911176,-87.677311,"(41.911176, -87.677311)"
2656,1480 W Foster Ave,48,77,Edgewater,2,41.97636,-87.667473,1,41.97636,-87.667473,"(41.97636, -87.667473)"
5965,1031 N Clark St,42,8,Near North Side,2,41.901013,-87.631176,1,41.901013,-87.631176,"(41.901013, -87.631176)"
3093,1800 N Keeler Ave,30,23,Humboldt Park,3,41.913356,-87.731495,1,41.913356,-87.731495,"(41.913356, -87.731495)"
3545,11710 S Morgan St,34,53,West Pullman,2,41.681026,-87.647048,1,41.681026,-87.647048,"(41.681026, -87.647048)"
775,1415 S Wabash Ave,2,33,Near South Side,2,41.863547,-87.625536,0,41.863547,-87.625536,"(41.863547, -87.625536)"
5444,2 N LaSalle St,42,32,Loop,2,41.882046,-87.632427,1,41.882046,-87.632427,"(41.882046, -87.632427)"
6184,1111 W Addison St,44,6,Lake View,2,41.947036,-87.657547,1,41.947036,-87.657547,"(41.947036, -87.657547)"
6737,1816 W Wilson Ave,47,4,Lincoln Square,1,41.965297,-87.674966,0,41.965297,-87.674966,"(41.965297, -87.674966)"
5121,1000 W North Shore Ave,49,1,Rogers Park,2,42.003801,-87.657651,1,42.003801,-87.657651,"(42.003801, -87.657651)"
2331,1371 W Chicago Ave,27,24,West Town,2,41.896027,-87.661798,1,41.896027,-87.661798,"(41.896027, -87.661798)"
5160,1548 E 63rd St,5,42,Woodlawn,6,41.780728,-87.587566,1,41.780728,-87.587566,"(41.780728, -87.587566)"
2175,1419 W Blackhawk St,32,24,West Town,3,41.906919,-87.663447,1,41.906919,-87.663447,"(41.906919, -87.663447)"
4875,1443 N Ogden Ave,27,8,Near North Side,2,41.907093,-87.646018,1,41.907093,-87.646018,"(41.907093, -87.646018)"
3927,1076 W Taylor St,25,28,Near West Side,1,41.869609,-87.653733,1,41.869609,-87.653733,"(41.869609, -87.653733)"
3499,2004 N Milwaukee Ave,1,22,Logan Square,4,41.917558,-87.688878,1,41.917558,-87.688878,"(41.917558, -87.688878)"
2948,11157 S Halsted St,34,49,Roseland,2,41.691346,-87.6421,1,41.691346,-87.6421,"(41.691346, -87.6421)"
179,1601 W School St,44,6,Lake View,2,41.941426,-87.668861,0,41.941426,-87.668861,"(41.941426, -87.668861)"
6711,1535 W Madison St,2,28,Near West Side,1,41.881338,-87.665538,0,41.881338,-87.665538,"(41.881338, -87.665538)"
3993,23 S Wabash Ave,42,32,Loop,2,41.881392,-87.625981,1,41.881392,-87.625981,"(41.881392, -87.625981)"
1346,1710 W 18th St,25,31,Lower West Side,1,41.856961,-87.669076,1,41.856961,-87.669076,"(41.856961, -87.669076)"
4417,1211 N LaSalle Dr,42,8,Near North Side,1,41.904063,-87.632733,1,41.904063,-87.632733,"(41.904063, -87.632733)"
1548,1743 W 91st St,21,73,Washington Heights,2,41.727367,-87.666233,1,41.727367,-87.666233,"(41.727367, -87.666233)"
6066,1021 W Lill Ave,43,7,Lincoln Park,3,41.927917,-87.65434,1,41.927917,-87.65434,"(41.927917, -87.65434)"
6015,2121 W Taylor St,2,28,Near West Side,2,41.868938,-87.679027,1,41.868938,-87.679027,"(41.868938, -87.679027)"
606,150 E Delaware Pl,42,8,Near North Side,1,41.899343,-87.623731,0,41.899343,-87.623731,"(41.899343, -87.623731)"
4358,200 E Randolph St,42,32,Loop,3,41.884545,-87.622196,1,41.884545,-87.622196,"(41.884545, -87.622196)"
6067,1170 W Armitage Ave,43,7,Lincoln Park,1,41.918251,-87.657551,1,41.918251,-87.657551,"(41.918251, -87.657551)"
5955,2045 N Damen Ave,32,22,Logan Square,1,41.918924,-87.677483,1,41.918924,-87.677483,"(41.918924, -87.677483)"
6461,1009 W Fulton Market,27,28,Near West Side,1,41.886609,-87.652556,0,41.886609,-87.652556,"(41.886609, -87.652556)"
4286,1953 W Chicago Ave,1,24,West Town,1,41.895821,-87.676217,1,41.895821,-87.676217,"(41.895821, -87.676217)"
4449,10211 S Crandon Ave,10,51,South Deering,2,41.709534,-87.566737,1,41.709534,-87.566737,"(41.709534, -87.566737)"
2130,1400 W Belmont Ave,32,6,Lake View,2,41.939856,-87.664006,1,41.939856,-87.664006,"(41.939856, -87.664006)"
5143,1632 W Wrightwood Ave,32,7,Lincoln Park,4,41.928855,-87.669636,1,41.928855,-87.669636,"(41.928855, -87.669636)"
3224,120 N LaSalle St,42,32,Loop,2,41.883745,-87.632488,1,41.883745,-87.632488,"(41.883745, -87.632488)"
6128,1951 W Dickens Ave,32,22,Logan Square,2,41.919469,-87.676863,1,41.919469,-87.676863,"(41.919469, -87.676863)"
4048,1628 W Washington Blvd,27,28,Near West Side,3,41.883425,-87.667682,1,41.883425,-87.667682,"(41.883425, -87.667682)"
5817,2000 W North Ave,32,24,West Town,1,41.910507,-87.677593,1,41.910507,-87.677593,"(41.910507, -87.677593)"
6259,1015 W Irving Park Rd,44,6,Lake View,1,41.954337,-87.655139,1,41.954337,-87.655139,"(41.954337, -87.655139)"
6559,1101 W Lake St,27,28,Near West Side,1,41.885402,-87.654616,0,41.885402,-87.654616,"(41.885402, -87.654616)"
3964,200 S Wabash Ave,42,32,Loop,3,41.879379,-87.626233,1,41.879379,-87.626233,"(41.879379, -87.626233)"
5290,1200 S Lake Shore Dr,2,33,Near South Side,16,41.86517,-87.615542,1,41.86517,-87.615542,"(41.86517, -87.615542)"
4640,1804 W Division St,1,24,West Town,1,41.903382,-87.672648,1,41.903382,-87.672648,"(41.903382, -87.672648)"
1409,1 E 51st St,3,40,Washington Park,1,41.8019,-87.625808,1,41.8019,-87.625808,"(41.8019, -87.625808)"
4016,211 W Wacker Dr,42,32,Loop,2,41.886589,-87.634168,1,41.886589,-87.634168,"(41.886589, -87.634168)"
6215,1735 N Paulina St,1,24,West Town,2,41.913094,-87.670016,1,41.913094,-87.670016,"(41.913094, -87.670016)"
3689,2200 S Pulaski Rd,22,29,North Lawndale,1,41.851413,-87.724802,1,41.851413,-87.724802,"(41.851413, -87.724802)"
4783,1836 W Foster Ave,40,4,Lincoln Square,1,41.976239,-87.675694,1,41.976239,-87.675694,"(41.976239, -87.675694)"
4692,111 W Jackson Blvd,2,32,Loop,2,41.878022,-87.631087,1,41.878022,-87.631087,"(41.878022, -87.631087)"
4148,1527 N Wicker Park Ave,1,24,West Town,2,41.908494,-87.676459,1,41.908494,-87.676459,"(41.908494, -87.676459)"
1981,2040 W Adams St,2,28,Near West Side,2,41.878848,-87.67808,1,41.878848,-87.67808,"(41.878848, -87.67808)"
561,130 E Randolph St,42,32,Loop,1,41.884601,-87.623654,0,41.884601,-87.623654,"(41.884601, -87.623654)"
4760,1307 E 60th St,20,42,Woodlawn,2,41.785918,-87.594358,1,41.785918,-87.594358,"(41.785918, -87.594358)"
2460,1121 S Columbus Dr,2,32,Loop,1,41.87262,-87.620406,1,41.87262,-87.620406,"(41.87262, -87.620406)"
3778,1001 W Roscoe St,44,6,Lake View,3,41.943397,-87.654252,1,41.943397,-87.654252,"(41.943397, -87.654252)"
3366,2200 S Marshall Blvd,12,30,South Lawndale,1,41.851813,-87.699088,1,41.851813,-87.699088,"(41.851813, -87.699088)"
4773,1064 W Berwyn Ave,48,77,Edgewater,2,41.978315,-87.657054,1,41.978315,-87.657054,"(41.978315, -87.657054)"
4902,2100 N California Ave,35,22,Logan Square,1,41.919727,-87.697402,1,41.919727,-87.697402,"(41.919727, -87.697402)"
1332,1120 W 122nd St,34,53,West Pullman,2,41.672371,-87.649842,1,41.672371,-87.649842,"(41.672371, -87.649842)"
6144,2145 W Irving Park Rd,47,5,North Center,1,41.953963,-87.682725,1,41.953963,-87.682725,"(41.953963, -87.682725)"
3333,1710 W Lunt Ave,49,1,Rogers Park,1,42.009132,-87.672749,1,42.009132,-87.672749,"(42.009132, -87.672749)"
4416,2111 W Estes Ave,50,2,West Ridge,4,42.011057,-87.683999,1,42.011057,-87.683999,"(42.011057, -87.683999)"
3885,11156 S St. Lawrence Ave,9,50,Pullman,1,41.691488,-87.608561,1,41.691488,-87.608561,"(41.691488, -87.608561)"
165,1809 E 71st Pl,5,43,South Shore,2,41.765057,-87.581418,0,41.765057,-87.581418,"(41.765057, -87.581418)"
4018,110 N Wacker Dr,42,32,Loop,1,41.883554,-87.637228,1,41.883554,-87.637228,"(41.883554, -87.637228)"
2643,1210 W Farwell Ave,49,1,Rogers Park,2,42.006879,-87.66174,1,42.006879,-87.66174,"(42.006879, -87.66174)"
4004,1 E Wacker Dr,42,32,Loop,3,41.886752,-87.627907,1,41.886752,-87.627907,"(41.886752, -87.627907)"
568,16 N Wabash Ave,42,32,Loop,1,41.882321,-87.626353,0,41.882321,-87.626353,"(41.882321, -87.626353)"
1992,1103 W Addison St,44,6,Lake View,1,41.947038,-87.657425,1,41.947038,-87.657425,"(41.947038, -87.657425)"
4620,1000 W Addison St,44,6,Lake View,2,41.94737,-87.654465,1,41.94737,-87.654465,"(41.94737, -87.654465)"
806,1152 N Milwaukee Ave,1,24,West Town,1,41.902551,-87.665485,0,41.902551,-87.665485,"(41.902551, -87.665485)"
4901,1015 W Lake St,27,28,Near West Side,2,41.885415,-87.652705,1,41.885415,-87.652705,"(41.885415, -87.652705)"
6110,1300 E 47th St,4,39,Kenwood,1,41.808808,-87.592871,1,41.808808,-87.592871,"(41.808808, -87.592871)"
328,1601 N Milwaukee Ave,32,24,West Town,2,41.910566,-87.677546,0,41.910566,-87.677546,"(41.910566, -87.677546)"
2273,1201 W Catalpa Ave,48,77,Edgewater,1,41.981681,-87.660167,1,41.981681,-87.660167,"(41.981681, -87.660167)"
1045,141 W Jackson Blvd,2,32,Loop,1,41.878098,-87.631852,0,41.878098,-87.631852,"(41.878098, -87.631852)"
4820,1110 W Lill Ave,32,7,Lincoln Park,2,41.928163,-87.656587,1,41.928163,-87.656587,"(41.928163, -87.656587)"
574,1307 S Wabash Ave,2,33,Near South Side,1,41.865489,-87.625591,0,41.865489,-87.625591,"(41.865489, -87.625591)"
3604,2200 N Oakley Ave,32,22,Logan Square,2,41.921982,-87.685592,1,41.921982,-87.685592,"(41.921982, -87.685592)"
5260,2001 N Orchard St,43,7,Lincoln Park,4,41.918318,-87.646035,1,41.918318,-87.646035,"(41.918318, -87.646035)"
3645,1400 W Pershing Rd,11,59,McKinley Park,2,41.823324,-87.659951,1,41.823324,-87.659951,"(41.823324, -87.659951)"
3735,1313 W Randolph St,27,28,Near West Side,1,41.883945,-87.659294,1,41.883945,-87.659294,"(41.883945, -87.659294)"
4731,1500 S California Ave,24,29,North Lawndale,1,41.861177,-87.695792,1,41.861177,-87.695792,"(41.861177, -87.695792)"
3009,160 E Huron St,42,8,Near North Side,3,41.895088,-87.623576,1,41.895088,-87.623576,"(41.895088, -87.623576)"
4268,10052 S Ewing Ave,10,52,East Side,1,41.712353,-87.53545,1,41.712353,-87.53545,"(41.712353, -87.53545)"
4401,1920 N Hamlin Ave,26,22,Logan Square,4,41.915877,-87.721776,1,41.915877,-87.721776,"(41.915877, -87.721776)"
15,1060 E 47th St,4,39,Kenwood,2,41.809728,-87.600232,0,41.809728,-87.600232,"(41.809728, -87.600232)"
5971,1801 W 18th St,25,31,Lower West Side,1,41.857592,-87.671323,1,41.857592,-87.671323,"(41.857592, -87.671323)"
3620,180 E Ontario St,42,8,Near North Side,3,41.893487,-87.623176,1,41.893487,-87.623176,"(41.893487, -87.623176)"
3044,1465 W Irving Park Rd,47,6,Lake View,2,41.954187,-87.666558,1,41.954187,-87.666558,"(41.954187, -87.666558)"
3736,1501 W Randolph St,27,28,Near West Side,2,41.884566,-87.664407,1,41.884566,-87.664407,"(41.884566, -87.664407)"
894,1944 N Damen Ave,32,22,Logan Square,1,41.91716,-87.677775,0,41.91716,-87.677775,"(41.91716, -87.677775)"
4431,11533 S Ada St,34,53,West Pullman,4,41.684247,-87.655311,1,41.684247,-87.655311,"(41.684247, -87.655311)"
1354,201 w 22nd Pl,25,34,Armour Square,2,41.852031,-87.632275,1,41.852031,-87.632275,"(41.852031, -87.632275)"
4067,221 N Wells St,42,32,Loop,3,41.886334,-87.633896,1,41.886334,-87.633896,"(41.886334, -87.633896)"
6045,2255 N Clark St,43,7,Lincoln Park,1,41.923267,-87.638858,1,41.923267,-87.638858,"(41.923267, -87.638858)"
3767,1076 W Roosevelt Rd,25,28,Near West Side,1,41.867252,-87.653925,1,41.867252,-87.653925,"(41.867252, -87.653925)"
4343,1147 N Western Ave,1,24,West Town,2,41.902305,-87.686813,1,41.902305,-87.686813,"(41.902305, -87.686813)"
57,1925 N Milwaukee Ave,1,22,Logan Square,1,41.91663,-87.686841,0,41.91663,-87.686841,"(41.91663, -87.686841)"
1446,1310 E 63rd St,20,42,Woodlawn,2,41.780667,-87.594212,1,41.780667,-87.594212,"(41.780667, -87.594212)"
1538,101 W 87th St,21,44,Chatham,1,41.736223,-87.626737,1,41.736223,-87.626737,"(41.736223, -87.626737)"
6543,1705 W 18th St,25,31,Lower West Side,1,41.857621,-87.668975,0,41.857621,-87.668975,"(41.857621, -87.668975)"
4070,223 N Wells St,42,32,Loop,3,41.886344,-87.633888,1,41.886344,-87.633888,"(41.886344, -87.633888)"
5259,2245 N Southport Ave,32,7,Lincoln Park,2,41.922422,-87.662975,1,41.922422,-87.662975,"(41.922422, -87.662975)"
4682,1431 N Claremont Ave,1,24,West Town,1,41.907218,-87.685744,1,41.907218,-87.685744,"(41.907218, -87.685744)"
6275,2131 N Southport Ave,32,7,Lincoln Park,1,41.920906,-87.662986,1,41.920906,-87.662986,"(41.920906, -87.662986)"
2255,1677 W Bryn Mawr Ave,40,77,Edgewater,1,41.983303,-87.671563,1,41.983303,-87.671563,"(41.983303, -87.671563)"
2315,2225 W Chicago Ave,32,24,West Town,1,41.895703,-87.682673,1,41.895703,-87.682673,"(41.895703, -87.682673)"
2133,1500 W Belmont Ave,44,6,Lake View,2,41.939862,-87.666453,1,41.939862,-87.666453,"(41.939862, -87.666453)"
215,1701 N Milwaukee Ave,32,24,West Town,1,41.912359,-87.680386,0,41.912359,-87.680386,"(41.912359, -87.680386)"
2672,180 S Franklin St,2,32,Loop,1,41.879698,-87.635425,1,41.879698,-87.635425,"(41.879698, -87.635425)"
3738,188 W Randolph St,42,32,Loop,3,41.88459,-87.633494,1,41.88459,-87.633494,"(41.88459, -87.633494)"
3926,1129 W Taylor St,25,28,Near West Side,1,41.869326,-87.655432,1,41.869326,-87.655432,"(41.869326, -87.655432)"
3434,20 N Michigan Ave,42,32,Loop,2,41.882393,-87.624667,1,41.882393,-87.624667,"(41.882393, -87.624667)"
478,222 W Ontario St,42,8,Near North Side,1,41.893319,-87.634531,0,41.893319,-87.634531,"(41.893319, -87.634531)"
6036,1563 N Wells St,43,8,Near North Side,1,41.910364,-87.634518,1,41.910364,-87.634518,"(41.910364, -87.634518)"
5997,1601 W Taylor St,2,28,Near West Side,2,41.869172,-87.666689,1,41.869172,-87.666689,"(41.869172, -87.666689)"
4476,1824 N Milwaukee Ave,1,22,Logan Square,2,41.914504,-87.684115,1,41.914504,-87.684115,"(41.914504, -87.684115)"
2533,1555 N Dayton St,43,8,Near North Side,1,41.909971,-87.649302,1,41.909971,-87.649302,"(41.909971, -87.649302)"
7186,1454 W 47th St,3,61,New City,1,41.808771,-87.66176,0,41.808771,-87.66176,"(41.808771, -87.66176)"
5952,1725 N Damen Ave,32,24,West Town,1,41.912973,-87.677418,1,41.912973,-87.677418,"(41.912973, -87.677418)"
5891,1512 N Wells St,27,8,Near North Side,1,41.909563,-87.63486,1,41.909563,-87.63486,"(41.909563, -87.63486)"
6206,1949 N Hoyne Ave,32,22,Logan Square,1,41.917221,-87.679895,1,41.917221,-87.679895,"(41.917221, -87.679895)"
1030,1649 W Howard St,49,1,Rogers Park,8,42.019343,-87.673495,0,42.019343,-87.673495,"(42.019343, -87.673495)"
2554,150 N Dearborn St,42,32,Loop,2,41.884552,-87.629549,1,41.884552,-87.629549,"(41.884552, -87.629549)"
4064,1660 N Wells St,43,7,Lincoln Park,1,41.912323,-87.634924,1,41.912323,-87.634924,"(41.912323, -87.634924)"
3156,1601 W Lake St,27,28,Near West Side,1,41.88521,-87.667193,1,41.88521,-87.667193,"(41.88521, -87.667193)"
5228,2039 W Belle Plaine Ave,47,5,North Center,1,41.955833,-87.68026,1,41.955833,-87.68026,"(41.955833, -87.68026)"
1515,1958 W 79th St,18,71,Auburn Gresham,1,41.750369,-87.672413,1,41.750369,-87.672413,"(41.750369, -87.672413)"
3607,2102 W Ogden Ave,25,28,Near West Side,1,41.870611,-87.679221,1,41.870611,-87.679221,"(41.870611, -87.679221)"
6010,1845 W Rice St,1,24,West Town,1,41.896762,-87.673306,1,41.896762,-87.673306,"(41.896762, -87.673306)"
3424,112 S Michigan Ave,42,32,Loop,1,41.880662,-87.624619,1,41.880662,-87.624619,"(41.880662, -87.624619)"
4984,111 N Canal St,42,28,Near West Side,1,41.883536,-87.639589,1,41.883536,-87.639589,"(41.883536, -87.639589)"
3464,1746 S Miller St,25,31,Lower West Side,1,41.858578,-87.652355,1,41.858578,-87.652355,"(41.858578, -87.652355)"
17,1531 W Taylor St,2,28,Near West Side,3,41.869171,-87.664882,0,41.869171,-87.664882,"(41.869171, -87.664882)"
6291,11346 S Michigan Ave,9,49,Roseland,1,41.687767,-87.621138,1,41.687767,-87.621138,"(41.687767, -87.621138)"
6701,2100 S Marshall Blvd,24,30,South Lawndale,1,41.853535,-87.699305,0,41.853535,-87.699305,"(41.853535, -87.699305)"
6249,1800 S Jefferson St,25,31,Lower West Side,1,41.85752,-87.641931,1,41.85752,-87.641931,"(41.85752, -87.641931)"
3118,10 W Kinzie St,42,8,Near North Side,1,41.889383,-87.628459,1,41.889383,-87.628459,"(41.889383, -87.628459)"
2189,2184 W Bowler St,25,28,Near West Side,1,41.870691,-87.680689,1,41.870691,-87.680689,"(41.870691, -87.680689)"
2555,100 S Dearborn St,42,32,Loop,2,41.880652,-87.629441,1,41.880652,-87.629441,"(41.880652, -87.629441)"
3634,1818 S Paulina St,25,31,Lower West Side,1,41.857098,-87.668734,1,41.857098,-87.668734,"(41.857098, -87.668734)"
6369,1340 W Washington Blvd,27,28,Near West Side,1,41.883056,-87.661096,1,41.883056,-87.661096,"(41.883056, -87.661096)"
6630,1036 W Bryn Mawr Ave,48,77,Edgewater,2,41.983811,-87.656762,0,41.983811,-87.656762,"(41.983811, -87.656762)"
4279,2026 W Webster Ave,32,22,Logan Square,1,41.92151,-87.678774,1,41.92151,-87.678774,"(41.92151, -87.678774)"
4322,2235 N Sheffield Ave,43,7,Lincoln Park,1,41.922397,-87.653285,1,41.922397,-87.653285,"(41.922397, -87.653285)"
4060,151 N Wells St,42,32,Loop,1,41.884536,-87.633809,1,41.884536,-87.633809,"(41.884536, -87.633809)"
2517,1328 N Damen Ave,1,24,West Town,2,41.905821,-87.677498,1,41.905821,-87.677498,"(41.905821, -87.677498)"
491,2157 W North Ave,32,24,West Town,2,41.910268,-87.681283,0,41.910268,-87.681283,"(41.910268, -87.681283)"
4110,11612 S Western Ave,19,75,Morgan Park,1,41.6824,-87.681048,1,41.6824,-87.681048,"(41.6824, -87.681048)"
5082,2019 W Lawrence Ave,47,4,Lincoln Square,2,41.968616,-87.679761,1,41.968616,-87.679761,"(41.968616, -87.679761)"
3930,1118 W Thorndale Ave,48,77,Edgewater,2,41.990117,-87.658669,1,41.990117,-87.658669,"(41.990117, -87.658669)"
4404,1001 N Dearborn St,42,8,Near North Side,2,41.900724,-87.629731,1,41.900724,-87.629731,"(41.900724, -87.629731)"
6201,1200 S Canal St,2,28,Near West Side,2,41.867186,-87.639304,1,41.867186,-87.639304,"(41.867186, -87.639304)"
4262,10555 S Ewing Ave,10,52,East Side,1,41.703581,-87.535084,1,41.703581,-87.535084,"(41.703581, -87.535084)"
4433,11941 S Parnell Ave,34,53,West Pullman,3,41.67711,-87.635677,1,41.67711,-87.635677,"(41.67711, -87.635677)"
2177,1419 W Blackhawk St,32,24,West Town,2,41.906919,-87.663447,1,41.906919,-87.663447,"(41.906919, -87.663447)"
4538,1369 W Fullerton Ave,32,7,Lincoln Park,1,41.925095,-87.662628,1,41.925095,-87.662628,"(41.925095, -87.662628)"
2606,1200 W Division St,32,24,West Town,1,41.903549,-87.658485,1,41.903549,-87.658485,"(41.903549, -87.658485)"
5316,11107 S Longwood Dr,19,75,Morgan Park,2,41.69163,-87.671782,1,41.69163,-87.671782,"(41.69163, -87.671782)"
4039,150 W Washington St,42,32,Loop,1,41.883345,-87.632558,1,41.883345,-87.632558,"(41.883345, -87.632558)"
3087,10 S Kedzie Ave,28,27,East Garfield Park,3,41.880745,-87.706283,1,41.880745,-87.706283,"(41.880745, -87.706283)"
1563,2121 W 95th St,19,72,Beverly,2,41.720843,-87.675535,1,41.720843,-87.675535,"(41.720843, -87.675535)"
6173,2 E Oak St,42,8,Near North Side,1,41.900779,-87.62821,1,41.900779,-87.62821,"(41.900779, -87.62821)"
5096,10244 S Ewing Ave,10,52,East Side,1,41.70914,-87.535447,1,41.70914,-87.535447,"(41.70914, -87.535447)"
4868,1039 W Hollywood Ave,48,77,Edgewater,1,41.98536,-87.656938,1,41.98536,-87.656938,"(41.98536, -87.656938)"
6799,1509 W Jarvis Ave,49,1,Rogers Park,1,42.015895,-87.668492,0,42.015895,-87.668492,"(42.015895, -87.668492)"
5393,1440 N Sacramento Ave,26,24,West Town,4,41.907928,-87.701479,1,41.907928,-87.701479,"(41.907928, -87.701479)"
2291,100 N Central Park Ave,28,27,East Garfield Park,13,41.881855,-87.715858,1,41.881855,-87.715858,"(41.881855, -87.715858)"
3726,1831 S Racine Ave,25,31,Lower West Side,1,41.857478,-87.656221,1,41.857478,-87.656221,"(41.857478, -87.656221)"
1492,2100 E 71st St,5,43,South Shore,1,41.766325,-87.573702,1,41.766325,-87.573702,"(41.766325, -87.573702)"
3148,101 E Lake St,42,32,Loop,2,41.885695,-87.624438,1,41.885695,-87.624438,"(41.885695, -87.624438)"
2174,2000 N Bissell St,43,7,Lincoln Park,1,41.918313,-87.652323,1,41.918313,-87.652323,"(41.918313, -87.652323)"
5032,1585 N Milwaukee Ave,1,24,West Town,1,41.910197,-87.676856,1,41.910197,-87.676856,"(41.910197, -87.676856)"
3953,1224 W Van Buren St,2,28,Near West Side,1,41.87663,-87.657758,1,41.87663,-87.657758,"(41.87663, -87.657758)"
5436,11 S LaSalle St,42,32,Loop,2,41.881622,-87.632148,1,41.881622,-87.632148,"(41.881622, -87.632148)"
1539,1527 E 87th St,8,48,Calumet Heights,1,41.736827,-87.586743,1,41.736827,-87.586743,"(41.736827, -87.586743)"
4588,1330 E 50th St,4,39,Kenwood,2,41.804336,-87.59414,1,41.804336,-87.59414,"(41.804336, -87.59414)"
4210,1241 W 58th St,16,67,West Englewood,3,41.788541,-87.65621,1,41.788541,-87.65621,"(41.788541, -87.65621)"
5827,1655 W Division St,1,24,West Town,1,41.903158,-87.669425,1,41.903158,-87.669425,"(41.903158, -87.669425)"
2928,11046 S Hale Ave,19,75,Morgan Park,1,41.692738,-87.670569,1,41.692738,-87.670569,"(41.692738, -87.670569)"
5131,2111 N Halsted St,43,7,Lincoln Park,1,41.920317,-87.648403,1,41.920317,-87.648403,"(41.920317, -87.648403)"
4502,1058 W Polk St,25,28,Near West Side,1,41.87193,-87.653404,1,41.87193,-87.653404,"(41.87193, -87.653404)"
324,1144 W Fulton St,27,28,Near West Side,2,41.886822,-87.655991,0,41.886822,-87.655991,"(41.886822, -87.655991)"
1314,1971 W 111th St,19,75,Morgan Park,1,41.691801,-87.671351,1,41.691801,-87.671351,"(41.691801, -87.671351)"
3685,10001 S Pulaski Rd,19,74,Mount Greenwood,1,41.711137,-87.720903,1,41.711137,-87.720903,"(41.711137, -87.720903)"
1440,1362 E 59th St,5,41,Hyde Park,1,41.787983,-87.592468,1,41.787983,-87.592468,"(41.787983, -87.592468)"
5888,1548 N Wells St,27,8,Near North Side,1,41.910137,-87.634874,1,41.910137,-87.634874,"(41.910137, -87.634874)"
1422,1530 E 53rd St,4,41,Hyde Park,2,41.799656,-87.587924,1,41.799656,-87.587924,"(41.799656, -87.587924)"
1455,21 E 63rd St,20,69,Greater Grand Crossing,2,41.779888,-87.624649,1,41.779888,-87.624649,"(41.779888, -87.624649)"
4981,1201 S Western Ave,25,28,Near West Side,1,41.866553,-87.685969,1,41.866553,-87.685969,"(41.866553, -87.685969)"
4027,101 N Wacker Dr,42,32,Loop,3,41.883272,-87.636687,1,41.883272,-87.636687,"(41.883272, -87.636687)"
3429,11256 S Michigan Ave,9,49,Roseland,1,41.689517,-87.621185,1,41.689517,-87.621185,"(41.689517, -87.621185)"
1404,1800 W 47th St,20,61,New City,1,41.80864,-87.669974,1,41.80864,-87.669974,"(41.80864, -87.669974)"
3059,1911 W Jackson Blvd,2,28,Near West Side,2,41.877368,-87.674545,1,41.877368,-87.674545,"(41.877368, -87.674545)"
3787,1401 S Sacramento Dr,24,29,North Lawndale,6,41.862361,-87.701816,1,41.862361,-87.701816,"(41.862361, -87.701816)"
2417,2200 N Clark St,43,7,Lincoln Park,12,41.922062,-87.638525,1,41.922062,-87.638525,"(41.922062, -87.638525)"
6576,2009 W Schiller St,1,24,West Town,1,41.906993,-87.677773,0,41.906993,-87.677773,"(41.906993, -87.677773)"
4896,2124 W Lawrence Ave,47,4,Lincoln Square,1,41.968881,-87.682639,1,41.968881,-87.682639,"(41.968881, -87.682639)"
7052,1334 W 87th St,21,71,Auburn Gresham,1,41.736008,-87.657188,0,41.736008,-87.657188,"(41.736008, -87.657188)"
6012,1301 N Western Ave,1,24,West Town,1,41.904988,-87.686914,1,41.904988,-87.686914,"(41.904988, -87.686914)"
4686,1516 S Wabash Ave,3,33,Near South Side,1,41.861457,-87.625841,1,41.861457,-87.625841,"(41.861457, -87.625841)"
3064,1550 W Jarvis Ave,49,1,Rogers Park,1,42.016144,-87.669228,1,42.016144,-87.669228,"(42.016144, -87.669228)"
307,180 N Wabash Ave,42,32,Loop,2,41.885286,-87.626428,0,41.885286,-87.626428,"(41.885286, -87.626428)"
5880,1219 N Wells St,43,8,Near North Side,1,41.90442,-87.6343,1,41.90442,-87.6343,"(41.90442, -87.6343)"
4782,2257 W Irving Park Rd,47,5,North Center,2,41.953917,-87.685293,1,41.953917,-87.685293,"(41.953917, -87.685293)"
3211,1255 S Lake Shore Dr,2,33,Near South Side,4,41.863263,-87.618575,1,41.863263,-87.618575,"(41.863263, -87.618575)"
3947,1814 S Union Ave,25,31,Lower West Side,1,41.857376,-87.644973,1,41.857376,-87.644973,"(41.857376, -87.644973)"
54,2150 N California Ave,35,22,Logan Square,8,41.920942,-87.697475,0,41.920942,-87.697475,"(41.920942, -87.697475)"
6456,1717 W Chicago Ave,1,24,West Town,1,41.8959,-87.670397,0,41.8959,-87.670397,"(41.8959, -87.670397)"
6498,1652 W Wallen Ave,49,1,Rogers Park,1,42.00273,-87.672667,0,42.00273,-87.672667,"(42.00273, -87.672667)"
1421,1463 E 53rd St,4,41,Hyde Park,1,41.799399,-87.58981,1,41.799399,-87.58981,"(41.799399, -87.58981)"
7157,1411 W 87th St,21,71,Auburn Gresham,1,41.735724,-87.658644,0,41.735724,-87.658644,"(41.735724, -87.658644)"
2180,1801 S Blue Island Ave,25,31,Lower West Side,1,41.857796,-87.661149,1,41.857796,-87.661149,"(41.857796, -87.661149)"
1355,200 W 22nd Pl,25,34,Armour Square,2,41.8523,-87.632282,1,41.8523,-87.632282,"(41.8523, -87.632282)"
4948,1321 S Paulina St,2,28,Near West Side,1,41.864423,-87.668647,1,41.864423,-87.668647,"(41.864423, -87.668647)"
5007,1751 W 47th St,20,61,New City,1,41.808429,-87.66901,1,41.808429,-87.66901,"(41.808429, -87.66901)"
6256,1900 W Lawrence Ave,47,4,Lincoln Square,2,41.968905,-87.676376,1,41.968905,-87.676376,"(41.968905, -87.676376)"
997,213 W Institute Pl,27,8,Near North Side,1,41.897273,-87.634527,0,41.897273,-87.634527,"(41.897273, -87.634527)"
301,200 E Ohio St,42,8,Near North Side,1,41.892708,-87.622437,0,41.892708,-87.622437,"(41.892708, -87.622437)"
4448,1903 E 96th St,7,51,South Deering,2,41.720476,-87.577512,1,41.720476,-87.577512,"(41.720476, -87.577512)"
1225,1429 N Milwaukee Ave,1,24,West Town,1,41.907834,-87.673212,0,41.907834,-87.673212,"(41.907834, -87.673212)"
2140,1212 W Belmont Ave,44,6,Lake View,1,41.939918,-87.659587,1,41.939918,-87.659587,"(41.939918, -87.659587)"
2576,2230 W Dickens Ave,32,22,Logan Square,1,41.919311,-87.683423,1,41.919311,-87.683423,"(41.919311, -87.683423)"
4355,1524 N Ashland Ave,1,24,West Town,1,41.909626,-87.66785,1,41.909626,-87.66785,"(41.909626, -87.66785)"
5850,1123 N California Ave,1,24,West Town,1,41.901746,-87.696665,1,41.901746,-87.696665,"(41.901746, -87.696665)"
4713,2100 W Cullerton St,25,31,Lower West Side,1,41.855022,-87.678625,1,41.855022,-87.678625,"(41.855022, -87.678625)"
2330,162 E Chicago Ave,42,8,Near North Side,1,41.896808,-87.62355,1,41.896808,-87.62355,"(41.896808, -87.62355)"
1420,1644 E 53rd St,4,41,Hyde Park,1,41.799736,-87.585077,1,41.799736,-87.585077,"(41.799736, -87.585077)"
7088,11127 S Michigan Ave,9,49,Roseland,1,41.692133,-87.620838,0,41.692133,-87.620838,"(41.692133, -87.620838)"
4566,10800 S Western Ave,19,75,Morgan Park,2,41.697187,-87.681414,1,41.697187,-87.681414,"(41.697187, -87.681414)"
3051,1735 W Irving Park Rd,47,6,Lake View,1,41.95414,-87.672815,1,41.95414,-87.672815,"(41.95414, -87.672815)"
6167,200 S Columbus Dr,42,32,Loop,4,41.88083,-87.620807,1,41.88083,-87.620807,"(41.88083, -87.620807)"
3312,1960 N Lincoln Park West W,43,7,Lincoln Park,0,41.917327,-87.636621,1,41.917327,-87.636621,"(41.917327, -87.636621)"
3727,1953 N Racine Ave,32,7,Lincoln Park,1,41.917506,-87.658104,1,41.917506,-87.658104,"(41.917506, -87.658104)"
2622,13000 S Eberhart Ave,9,54,Riverdale,1,41.659014,-87.610723,1,41.659014,-87.610723,"(41.659014, -87.610723)"
6315,211 E Chicago Ave,42,8,Near North Side,2,41.89665,-87.622085,1,41.89665,-87.622085,"(41.89665, -87.622085)"
3351,145 W Madison St,42,32,Loop,2,41.881789,-87.63211,1,41.881789,-87.63211,"(41.881789, -87.63211)"
6083,1333 N Kingsbury St,32,8,Near North Side,2,41.905985,-87.649807,1,41.905985,-87.649807,"(41.905985, -87.649807)"
4224,1420 S Albany Ave,24,29,North Lawndale,2,41.862219,-87.703186,1,41.862219,-87.703186,"(41.862219, -87.703186)"
5361,1724 E 75th St,8,43,South Shore,2,41.75893,-87.582861,1,41.75893,-87.582861,"(41.75893, -87.582861)"
1403,1826 W 47th St,20,61,New City,1,41.808672,-87.670813,1,41.808672,-87.670813,"(41.808672, -87.670813)"
3246,2056 W Lawrence Ave,47,4,Lincoln Square,1,41.968857,-87.681112,1,41.968857,-87.681112,"(41.968857, -87.681112)"
869,1545 S State St,3,33,Near South Side,1,41.861118,-87.627028,0,41.861118,-87.627028,"(41.861118, -87.627028)"
6105,1767 E 79th St,8,46,South Chicago,1,41.751494,-87.580771,1,41.751494,-87.580771,"(41.751494, -87.580771)"
2058,2240 S Ashland Ave,25,31,Lower West Side,1,41.85175,-87.666194,1,41.85175,-87.666194,"(41.85175, -87.666194)"
1303,1865 W 107th St,19,75,Morgan Park,1,41.697901,-87.66812,1,41.697901,-87.66812,"(41.697901, -87.66812)"
3446,225 N Michigan Ave,42,32,Loop,2,41.886106,-87.624358,1,41.886106,-87.624358,"(41.886106, -87.624358)"
4365,1850 N Newland Ave,36,25,Austin,3,41.913547,-87.79876,1,41.913547,-87.79876,"(41.913547, -87.79876)"
6432,1122 E 47th St,4,39,Kenwood,1,41.809753,-87.59854,0,41.809753,-87.59854,"(41.809753, -87.59854)"
3431,140 N Michigan Ave,42,32,Loop,2,41.884173,-87.624674,1,41.884173,-87.624674,"(41.884173, -87.624674)"
2038,1601 W Armitage Ave,32,22,Logan Square,3,41.917769,-87.667729,1,41.917769,-87.667729,"(41.917769, -87.667729)"
3649,2050 W Peterson Ave,40,2,West Ridge,2,41.990791,-87.681255,1,41.990791,-87.681255,"(41.990791, -87.681255)"
4153,2284 N Lockwood Ave,37,19,Belmont Cragin,1,41.921851,-87.758712,1,41.921851,-87.758712,"(41.921851, -87.758712)"
5018,1646 E 55th St,5,41,Hyde Park,1,41.795352,-87.584849,1,41.795352,-87.584849,"(41.795352, -87.584849)"
4656,2300 N Sheffield Ave,32,7,Lincoln Park,1,41.923611,-87.653633,1,41.923611,-87.653633,"(41.923611, -87.653633)"
5806,1035 N Ashland Ave,27,24,West Town,2,41.900781,-87.667262,1,41.900781,-87.667262,"(41.900781, -87.667262)"
5878,1350 N Wells St,43,8,Near North Side,1,41.906999,-87.634755,1,41.906999,-87.634755,"(41.906999, -87.634755)"
5508,1935 W Foster Ave,40,4,Lincoln Square,1,41.976011,-87.677792,1,41.976011,-87.677792,"(41.976011, -87.677792)"
3219,2 N LaSalle St,42,32,Loop,3,41.882046,-87.632427,1,41.882046,-87.632427,"(41.882046, -87.632427)"
4068,1746 N Wells St,43,7,Lincoln Park,1,41.913925,-87.634934,1,41.913925,-87.634934,"(41.913925, -87.634934)"
1528,1704 E 83rd St,8,45,Avalon Park,1,41.74346,-87.582577,1,41.74346,-87.582577,"(41.74346, -87.582577)"
1245,1738 W Division St,1,24,West Town,2,41.9034,-87.671408,0,41.9034,-87.671408,"(41.9034, -87.671408)"
2503,1824 W Cullerton St,25,31,Lower West Side,2,41.855113,-87.671735,1,41.855113,-87.671735,"(41.855113, -87.671735)"
2366,144 N Clark St,42,32,Loop,1,41.884165,-87.631095,1,41.884165,-87.631095,"(41.884165, -87.631095)"
1347,1624 W 19th St,25,31,Lower West Side,1,41.85608,-87.66713,1,41.85608,-87.66713,"(41.85608, -87.66713)"
4095,11828 S Western Ave,19,75,Morgan Park,1,41.678349,-87.680919,1,41.678349,-87.680919,"(41.678349, -87.680919)"
6557,2022 W Washington Blvd,2,28,Near West Side,1,41.883283,-87.677376,0,41.883283,-87.677376,"(41.883283, -87.677376)"
957,1 N Franklin St,42,32,Loop,1,41.882014,-87.635242,0,41.882014,-87.635242,"(41.882014, -87.635242)"
6307,2108 N Damen Ave,32,22,Logan Square,1,41.919827,-87.677871,1,41.919827,-87.677871,"(41.919827, -87.677871)"
4629,2000 N Leavitt St,32,22,Logan Square,1,41.917765,-87.682626,1,41.917765,-87.682626,"(41.917765, -87.682626)"
6411,173 N Wells St,42,32,Loop,1,41.885005,-87.633816,1,41.885005,-87.633816,"(41.885005, -87.633816)"
4772,10540 S Morgan St,34,73,Washington Heights,2,41.702456,-87.647709,1,41.702456,-87.647709,"(41.702456, -87.647709)"
3608,2160 W Ogden Ave,25,28,Near West Side,1,41.869864,-87.680129,1,41.869864,-87.680129,"(41.869864, -87.680129)"
186,2056 W Division St,1,24,West Town,2,41.903283,-87.678622,0,41.903283,-87.678622,"(41.903283, -87.678622)"
3363,1640 N Maplewood Ave,1,24,West Town,2,41.911062,-87.691097,1,41.911062,-87.691097,"(41.911062, -87.691097)"
4149,116 N Willard Ct,27,28,Near West Side,2,41.883247,-87.657827,1,41.883247,-87.657827,"(41.883247, -87.657827)"
2536,1000 N Dearborn St,42,8,Near North Side,5,41.900719,-87.630035,1,41.900719,-87.630035,"(41.900719, -87.630035)"
61,1758 W Lawrence Ave,47,3,Uptown,1,41.968971,-87.673149,0,41.968971,-87.673149,"(41.968971, -87.673149)"
1066,2212 W Armitage Ave,32,22,Logan Square,2,41.917794,-87.683026,0,41.917794,-87.683026,"(41.917794, -87.683026)"
5313,11411 S Eggleston Ave,34,49,Roseland,2,41.686671,-87.633548,1,41.686671,-87.633548,"(41.686671, -87.633548)"
4261,10429 S Ewing Ave,10,52,East Side,1,41.705889,-87.535124,1,41.705889,-87.535124,"(41.705889, -87.535124)"
6410,134 N LaSalle St,42,32,Loop,1,41.884129,-87.632589,1,41.884129,-87.632589,"(41.884129, -87.632589)"
2313,103 E Chestnut St,42,8,Near North Side,1,41.898205,-87.626014,1,41.898205,-87.626014,"(41.898205, -87.626014)"
2515,1540 N Damen Ave,1,24,West Town,1,41.909446,-87.677536,1,41.909446,-87.677536,"(41.909446, -87.677536)"
5831,135 E 71st St,6,69,Greater Grand Crossing,2,41.765467,-87.621084,1,41.765467,-87.621084,"(41.765467, -87.621084)"
5036,2235 N Sheffield Ave,43,7,Lincoln Park,2,41.922397,-87.653285,1,41.922397,-87.653285,"(41.922397, -87.653285)"
5024,150 N State St,42,32,Loop,1,41.884571,-87.628,1,41.884571,-87.628,"(41.884571, -87.628)"
5411,1200 N Clark St,42,8,Near North Side,1,41.904118,-87.631654,1,41.904118,-87.631654,"(41.904118, -87.631654)"
1398,1743 W 47th St,20,61,New City,2,41.808431,-87.668898,1,41.808431,-87.668898,"(41.808431, -87.668898)"
343,1259 W Devon Ave,40,77,Edgewater,2,41.998023,-87.662332,0,41.998023,-87.662332,"(41.998023, -87.662332)"
4946,1628 W Washington Blvd,27,28,Near West Side,2,41.883425,-87.667682,1,41.883425,-87.667682,"(41.883425, -87.667682)"
3540,1530 W Montrose Ave,47,3,Uptown,2,41.961749,-87.668251,1,41.961749,-87.668251,"(41.961749, -87.668251)"
2669,200 N Franklin St,42,32,Loop,1,41.885817,-87.63553,1,41.885817,-87.63553,"(41.885817, -87.63553)"
4138,10107 S Western Ave,19,72,Beverly,1,41.709728,-87.681543,1,41.709728,-87.681543,"(41.709728, -87.681543)"
3213,11255 S Langley Ave,9,50,Pullman,1,41.690014,-87.605743,1,41.690014,-87.605743,"(41.690014, -87.605743)"
4277,2100 N Sheffield Ave,32,7,Lincoln Park,2,41.920052,-87.65353,1,41.920052,-87.65353,"(41.920052, -87.65353)"
6057,1226 W Ainslie St,48,3,Uptown,1,41.971585,-87.660161,1,41.971585,-87.660161,"(41.971585, -87.660161)"
3413,11060 S Michigan Ave,9,49,Roseland,1,41.693276,-87.621186,1,41.693276,-87.621186,"(41.693276, -87.621186)"
4937,2021 N Point St,1,22,Logan Square,2,41.917864,-87.694243,1,41.917864,-87.694243,"(41.917864, -87.694243)"
3450,220 S Michigan Ave,42,32,Loop,1,41.879205,-87.624594,1,41.879205,-87.624594,"(41.879205, -87.624594)"
4655,155 N Aberdeen St,27,28,Near West Side,2,41.884628,-87.654228,1,41.884628,-87.654228,"(41.884628, -87.654228)"
93,1935 W Thomas St,1,24,West Town,2,41.90127,-87.676164,0,41.90127,-87.676164,"(41.90127, -87.676164)"
3994,180 N Wabash Ave,42,32,Loop,1,41.885286,-87.626428,1,41.885286,-87.626428,"(41.885286, -87.626428)"
4065,1653 N Wells St,43,7,Lincoln Park,1,41.912054,-87.634586,1,41.912054,-87.634586,"(41.912054, -87.634586)"
4291,1721 N Damen Ave,32,24,West Town,1,41.912881,-87.677341,1,41.912881,-87.677341,"(41.912881, -87.677341)"
1550,1246 W 92nd St,21,73,Washington Heights,2,41.72689,-87.654093,1,41.72689,-87.654093,"(41.72689, -87.654093)"
5814,1967 W Chicago Ave,1,24,West Town,1,41.895818,-87.676421,1,41.895818,-87.676421,"(41.895818, -87.676421)"
5329,1017 W Belmont Ave,44,6,Lake View,1,41.939724,-87.654727,1,41.939724,-87.654727,"(41.939724, -87.654727)"
6297,10806 S Michigan Ave,9,49,Roseland,1,41.697793,-87.62103,1,41.697793,-87.62103,"(41.697793, -87.62103)"
1313,2153 W 111th St,19,75,Morgan Park,1,41.691736,-87.675491,1,41.691736,-87.675491,"(41.691736, -87.675491)"
4389,11300 S Halsted St,34,75,Morgan Park,1,41.68851,-87.642512,1,41.68851,-87.642512,"(41.68851, -87.642512)"
1049,1904 N Milwaukee Ave,1,22,Logan Square,1,41.915993,-87.686408,0,41.915993,-87.686408,"(41.915993, -87.686408)"
5123,1600 N Milwaukee Ave,1,24,West Town,4,41.910441,-87.677651,1,41.910441,-87.677651,"(41.910441, -87.677651)"
5175,10015 S Leavitt St,19,72,Beverly,2,41.7115,-87.67674,1,41.7115,-87.67674,"(41.7115, -87.67674)"
619,1323 W Grand Ave,27,24,West Town,1,41.8909,-87.660183,0,41.8909,-87.660183,"(41.8909, -87.660183)"
4496,1459 W Taylor St,2,28,Near West Side,1,41.869198,-87.663029,1,41.869198,-87.663029,"(41.869198, -87.663029)"
4969,1800 W Garfield Blvd,16,61,New City,2,41.794047,-87.669592,1,41.794047,-87.669592,"(41.794047, -87.669592)"
2486,2230 W Cortland St,32,22,Logan Square,1,41.916261,-87.683246,1,41.916261,-87.683246,"(41.916261, -87.683246)"
2101,10556 S Avenue L L,10,52,East Side,1,41.703542,-87.536634,1,41.703542,-87.536634,"(41.703542, -87.536634)"
375,201 E Randolph St,42,32,Loop,6,41.884069,-87.622486,0,41.884069,-87.622486,"(41.884069, -87.622486)"
2612,13100 S Doty Ave,9,54,Riverdale,3,41.657627,-87.591959,1,41.657627,-87.591959,"(41.657627, -87.591959)"
4608,1402 N Ashland Ave,1,24,West Town,1,41.907139,-87.66777,1,41.907139,-87.66777,"(41.907139, -87.66777)"
2367,1558 N Clark St,42,8,Near North Side,2,41.910703,-87.631841,1,41.910703,-87.631841,"(41.910703, -87.631841)"
4645,1415 N Wood St,1,24,West Town,1,41.907858,-87.672301,1,41.907858,-87.672301,"(41.907858, -87.672301)"
1244,1711 W Division St,1,24,West Town,1,41.903218,-87.67053,0,41.903218,-87.67053,"(41.903218, -87.67053)"
4418,1232 N LaSalle Dr,43,8,Near North Side,2,41.904576,-87.63311,1,41.904576,-87.63311,"(41.904576, -87.63311)"
3169,2000 N Lake Shore Dr,43,7,Lincoln Park,5,41.919113,-87.629469,1,41.919113,-87.629469,"(41.919113, -87.629469)"
75,1380 W Randolph St,27,28,Near West Side,4,41.884391,-87.66172,0,41.884391,-87.66172,"(41.884391, -87.66172)"
3119,200 W Kinzie St,42,8,Near North Side,4,41.88919,-87.634045,1,41.88919,-87.634045,"(41.88919, -87.634045)"
5281,1306 S Michigan Ave,2,33,Near South Side,2,41.865515,-87.624287,1,41.865515,-87.624287,"(41.865515, -87.624287)"
6570,1375 N Milwaukee Ave,1,24,West Town,1,41.906929,-87.671784,0,41.906929,-87.671784,"(41.906929, -87.671784)"
566,2105 S State St,3,33,Near South Side,2,41.854104,-87.626971,0,41.854104,-87.626971,"(41.854104, -87.626971)"
6327,2201 N Clybourn Ave,32,7,Lincoln Park,1,41.921787,-87.664378,1,41.921787,-87.664378,"(41.921787, -87.664378)"
4569,1249 W 63rd St,16,67,West Englewood,1,41.779594,-87.655772,1,41.779594,-87.655772,"(41.779594, -87.655772)"
6575,2300 W 52nd St,16,63,Gage Park,1,41.798974,-87.681909,0,41.798974,-87.681909,"(41.798974, -87.681909)"
4452,226 W 104th Pl,34,49,Roseland,2,41.704502,-87.629043,1,41.704502,-87.629043,"(41.704502, -87.629043)"
3039,1816 W Irving Park Rd,47,5,North Center,4,41.954328,-87.674709,1,41.954328,-87.674709,"(41.954328, -87.674709)"
2007,2002 W Addison St,47,5,North Center,1,41.946988,-87.678759,1,41.946988,-87.678759,"(41.946988, -87.678759)"
4220,1645 W 18th Pl,25,31,Lower West Side,3,41.85672,-87.667501,1,41.85672,-87.667501,"(41.85672, -87.667501)"
3442,181 N Michigan Ave,42,32,Loop,1,41.885224,-87.624305,1,41.885224,-87.624305,"(41.885224, -87.624305)"
2148,1338 W Belmont Ave,44,6,Lake View,2,41.939878,-87.662344,1,41.939878,-87.662344,"(41.939878, -87.662344)"
4944,214 N Lavergne Ave,28,25,Austin,2,41.884655,-87.750498,1,41.884655,-87.750498,"(41.884655, -87.750498)"
5494,2119 W Irving Park Rd,47,5,North Center,1,41.953969,-87.681913,1,41.953969,-87.681913,"(41.953969, -87.681913)"
4280,1410 N Milwaukee Ave,1,24,West Town,1,41.907423,-87.673125,1,41.907423,-87.673125,"(41.907423, -87.673125)"
5943,1659 N Ashland Ave,1,24,West Town,1,41.911667,-87.667544,1,41.911667,-87.667544,"(41.911667, -87.667544)"
6891,1617 N Kedzie Ave,26,23,Humboldt Park,1,41.91054,-87.706706,0,41.91054,-87.706706,"(41.91054, -87.706706)"
3137,180 N LaSalle St,42,32,Loop,2,41.88526,-87.632625,1,41.88526,-87.632625,"(41.88526, -87.632625)"
4988,1316 S Michigan Ave,2,33,Near South Side,1,41.86538,-87.624285,1,41.86538,-87.624285,"(41.86538, -87.624285)"
4622,2233 W Division St,32,24,West Town,3,41.902931,-87.683023,1,41.902931,-87.683023,"(41.902931, -87.683023)"
4129,10708 S Western Ave,19,75,Morgan Park,1,41.698728,-87.681558,1,41.698728,-87.681558,"(41.698728, -87.681558)"
2511,1425 N Damen Ave,1,24,West Town,1,41.907474,-87.67719,1,41.907474,-87.67719,"(41.907474, -87.67719)"
3987,101 N Wabash Ave,42,32,Loop,1,41.883365,-87.626066,1,41.883365,-87.626066,"(41.883365, -87.626066)"
4036,200 W Washington St,42,32,Loop,1,41.883304,-87.63401,1,41.883304,-87.63401,"(41.883304, -87.63401)"
3548,1358 W Morse Ave,49,1,Rogers Park,1,42.00806,-87.665325,1,42.00806,-87.665325,"(42.00806, -87.665325)"
1228,1521 N Milwaukee Ave,1,24,West Town,1,41.909348,-87.67554,0,41.909348,-87.67554,"(41.909348, -87.67554)"
1520,1934 E 79th St,8,43,South Shore,1,41.751714,-87.577002,1,41.751714,-87.577002,"(41.751714, -87.577002)"
4126,11612 S Western Ave,19,75,Morgan Park,1,41.6824,-87.681048,1,41.6824,-87.681048,"(41.6824, -87.681048)"
6016,1740 S Union Ave,25,31,Lower West Side,2,41.857963,-87.644893,1,41.857963,-87.644893,"(41.857963, -87.644893)"
6650,14 E Jackson Blvd,42,32,Loop,2,41.878354,-87.627174,0,41.878354,-87.627174,"(41.878354, -87.627174)"
3517,225 W Monroe St,2,32,Loop,3,41.880539,-87.634229,1,41.880539,-87.634229,"(41.880539, -87.634229)"
2300,1854 W Cermak Rd,25,31,Lower West Side,1,41.852363,-87.672631,1,41.852363,-87.672631,"(41.852363, -87.672631)"
4179,1632 W Wrightwood Ave,32,7,Lincoln Park,1,41.928855,-87.669636,1,41.928855,-87.669636,"(41.928855, -87.669636)"
6365,2108 W Walnut St,27,28,Near West Side,2,41.885948,-87.679626,1,41.885948,-87.679626,"(41.885948, -87.679626)"
1060,1732 E 79th St,8,43,South Shore,1,41.751587,-87.582017,0,41.751587,-87.582017,"(41.751587, -87.582017)"
5458,1626 W Lawrence Ave,47,3,Uptown,1,41.969008,-87.669942,1,41.969008,-87.669942,"(41.969008, -87.669942)"
6232,1421 W Chicago Ave,27,24,West Town,1,41.896002,-87.663164,1,41.896002,-87.663164,"(41.896002, -87.663164)"
5023,1300 W Jackson Blvd,27,28,Near West Side,1,41.877852,-87.659617,1,41.877852,-87.659617,"(41.877852, -87.659617)"
562,1798 W Lunt Ave,49,1,Rogers Park,9,42.009054,-87.675141,0,42.009054,-87.675141,"(42.009054, -87.675141)"
3646,2010 W Pershing Rd,11,59,McKinley Park,1,41.823258,-87.675488,1,41.823258,-87.675488,"(41.823258, -87.675488)"
5144,1845 N Clybourn Ave,32,7,Lincoln Park,2,41.914632,-87.654401,1,41.914632,-87.654401,"(41.914632, -87.654401)"
472,1913 W North Ave,1,24,West Town,2,41.910372,-87.675562,0,41.910372,-87.675562,"(41.910372, -87.675562)"
2794,2007 W Division St,1,24,West Town,1,41.903052,-87.677404,1,41.903052,-87.677404,"(41.903052, -87.677404)"
4898,1444 W Erie St,27,24,West Town,2,41.893528,-87.664215,1,41.893528,-87.664215,"(41.893528, -87.664215)"
5354,2048 W Armitage Ave,32,22,Logan Square,1,41.917875,-87.678833,1,41.917875,-87.678833,"(41.917875, -87.678833)"
4278,2056 N Damen Ave,32,22,Logan Square,1,41.919353,-87.677722,1,41.919353,-87.677722,"(41.919353, -87.677722)"
4873,2009 W Schiller St,1,24,West Town,2,41.906993,-87.677773,1,41.906993,-87.677773,"(41.906993, -87.677773)"
5438,2 N State St,42,32,Loop,2,41.882134,-87.627886,1,41.882134,-87.627886,"(41.882134, -87.627886)"
4971,1859 S Ashland Ave,25,31,Lower West Side,1,41.856492,-87.665941,1,41.856492,-87.665941,"(41.856492, -87.665941)"
2524,1825 N Damen Ave,32,22,Logan Square,1,41.914593,-87.677406,1,41.914593,-87.677406,"(41.914593, -87.677406)"
3127,1755 N Kostner Ave,31,23,Humboldt Park,1,41.91269,-87.735994,1,41.91269,-87.735994,"(41.91269, -87.735994)"
4081,1400 N Wells St,27,8,Near North Side,1,41.907827,-87.634788,1,41.907827,-87.634788,"(41.907827, -87.634788)"
4287,2159 W Chicago Ave,1,24,West Town,2,41.895733,-87.680895,1,41.895733,-87.680895,"(41.895733, -87.680895)"
4425,209 S LaSalle St,42,32,Loop,3,41.879235,-87.632199,1,41.879235,-87.632199,"(41.879235, -87.632199)"
3600,1800 W Norwood St,40,2,West Ridge,2,41.992071,-87.675487,1,41.992071,-87.675487,"(41.992071, -87.675487)"
5480,1701 W Division St,1,24,West Town,1,41.903166,-87.670286,1,41.903166,-87.670286,"(41.903166, -87.670286)"
1483,170 W 69th St,6,69,Greater Grand Crossing,1,41.769212,-87.629244,1,41.769212,-87.629244,"(41.769212, -87.629244)"
2900,1214 W Grace St,44,6,Lake View,2,41.951084,-87.659637,1,41.951084,-87.659637,"(41.951084, -87.659637)"
5360,1626 N California Ave,1,24,West Town,2,41.911031,-87.697199,1,41.911031,-87.697199,"(41.911031, -87.697199)"
4505,1048 N Campbell Ave,1,24,West Town,1,41.900547,-87.689583,1,41.900547,-87.689583,"(41.900547, -87.689583)"
3473,1564 N Milwaukee Ave,1,24,West Town,3,41.909785,-87.676767,1,41.909785,-87.676767,"(41.909785, -87.676767)"
6020,1436 W Taylor St,25,28,Near West Side,2,41.869473,-87.6626,1,41.869473,-87.6626,"(41.869473, -87.6626)"
5275,230 S Clark St,42,32,Loop,1,41.878546,-87.630887,1,41.878546,-87.630887,"(41.878546, -87.630887)"
2559,1 S Dearborn St,42,32,Loop,2,41.881865,-87.629267,1,41.881865,-87.629267,"(41.881865, -87.629267)"
310,102 N Wabash Ave,42,32,Loop,1,41.883363,-87.626375,0,41.883363,-87.626375,"(41.883363, -87.626375)"
5482,1635 W Irving Park Rd,47,6,Lake View,1,41.954118,-87.670434,1,41.954118,-87.670434,"(41.954118, -87.670434)"
4257,13300 S Brandon Ave,10,55,Hegewisch,1,41.65349,-87.546088,1,41.65349,-87.546088,"(41.65349, -87.546088)"
4867,2000 W Diversey Ave,1,5,North Center,3,41.932384,-87.67907,1,41.932384,-87.67907,"(41.932384, -87.67907)"
6511,211 W Adams St,2,32,Loop,18,41.879262,-87.634032,0,41.879262,-87.634032,"(41.879262, -87.634032)"
4720,1841 W Ogden Ave,2,28,Near West Side,1,41.875891,-87.67243,1,41.875891,-87.67243,"(41.875891, -87.67243)"
5062,2210 W Touhy Ave,49,2,West Ridge,1,42.012386,-87.686473,1,42.012386,-87.686473,"(42.012386, -87.686473)"
6158,2216 W Hirsch St,1,24,West Town,2,41.906863,-87.682924,1,41.906863,-87.682924,"(41.906863, -87.682924)"
3996,100 S Wabash Ave,42,32,Loop,1,41.880641,-87.62628,1,41.880641,-87.62628,"(41.880641, -87.62628)"
5445,150 N Dearborn St,42,32,Loop,1,41.884552,-87.629549,1,41.884552,-87.629549,"(41.884552, -87.629549)"
3691,115 S Pulaski Rd,28,26,West Garfield Park,2,41.879312,-87.725428,1,41.879312,-87.725428,"(41.879312, -87.725428)"
5502,1266 N Milwaukee Ave,1,24,West Town,1,41.904639,-87.668758,1,41.904639,-87.668758,"(41.904639, -87.668758)"
3048,1345 W Irving Park Rd,47,6,Lake View,1,41.954256,-87.66365,1,41.954256,-87.66365,"(41.954256, -87.66365)"
3426,224 S Michigan Ave,42,32,Loop,2,41.879164,-87.624594,1,41.879164,-87.624594,"(41.879164, -87.624594)"
76,200 E Pearson St,42,8,Near North Side,1,41.897747,-87.621613,0,41.897747,-87.621613,"(41.897747, -87.621613)"
2019,2126 S Archer Ave,25,34,Armour Square,4,41.853589,-87.633627,1,41.853589,-87.633627,"(41.853589, -87.633627)"
1212,2044 N Damen Ave,32,22,Logan Square,1,41.919056,-87.67785,0,41.919056,-87.67785,"(41.919056, -87.67785)"
7255,1023 W Montrose Ave,46,3,Uptown,1,41.961609,-87.65537,0,41.961609,-87.65537,"(41.961609, -87.65537)"
4392,1939 S Halsted St,25,31,Lower West Side,1,41.855813,-87.64641,1,41.855813,-87.64641,"(41.855813, -87.64641)"
3674,2000 W Pratt Blvd,49,1,Rogers Park,1,42.005235,-87.68018,1,42.005235,-87.68018,"(42.005235, -87.68018)"
4463,1001 W North Ave,32,8,Near North Side,1,41.910751,-87.65324,1,41.910751,-87.65324,"(41.910751, -87.65324)"
5490,1019 W Diversey Pky,32,7,Lincoln Park,3,41.932478,-87.654604,1,41.932478,-87.654604,"(41.932478, -87.654604)"
124,1132 W Grand Ave,27,24,West Town,2,41.891204,-87.655995,0,41.891204,-87.655995,"(41.891204, -87.655995)"
4786,1100 W Thorndale Ave,48,77,Edgewater,3,41.990127,-87.658359,1,41.990127,-87.658359,"(41.990127, -87.658359)"
352,1930 S Archer Ave,3,33,Near South Side,4,41.856311,-87.627999,0,41.856311,-87.627999,"(41.856311, -87.627999)"
4547,1010 E 72nd St,5,69,Greater Grand Crossing,3,41.764225,-87.600166,1,41.764225,-87.600166,"(41.764225, -87.600166)"
4509,1101 W Taylor St,25,28,Near West Side,1,41.869379,-87.654351,1,41.869379,-87.654351,"(41.869379, -87.654351)"
5489,1804 W Division St,1,24,West Town,1,41.903382,-87.672648,1,41.903382,-87.672648,"(41.903382, -87.672648)"
4077,1500 N Wells St,27,8,Near North Side,1,41.909372,-87.634855,1,41.909372,-87.634855,"(41.909372, -87.634855)"
1989,1 E Adams St,42,32,Loop,3,41.879382,-87.627517,1,41.879382,-87.627517,"(41.879382, -87.627517)"
3904,2301 N Stockton Dr,43,7,Lincoln Park,1,41.923826,-87.635561,1,41.923826,-87.635561,"(41.923826, -87.635561)"
1207,1723 N Damen Ave,32,24,West Town,1,41.912927,-87.677366,0,41.912927,-87.677366,"(41.912927, -87.677366)"
4757,1600 W Lake St,27,28,Near West Side,2,41.885479,-87.667203,1,41.885479,-87.667203,"(41.885479, -87.667203)"
1166,1835 N Milwaukee Ave,32,22,Logan Square,1,41.914879,-87.684141,0,41.914879,-87.684141,"(41.914879, -87.684141)"
5282,111 W Jackson Blvd,2,32,Loop,2,41.878022,-87.631087,1,41.878022,-87.631087,"(41.878022, -87.631087)"
2328,1371 W Chicago Ave,27,24,West Town,1,41.896027,-87.661798,1,41.896027,-87.661798,"(41.896027, -87.661798)"
1556,2250 W 95th St,19,72,Beverly,2,41.721188,-87.678786,1,41.721188,-87.678786,"(41.721188, -87.678786)"
5871,1143 N California Ave,26,24,West Town,1,41.902227,-87.696676,1,41.902227,-87.696676,"(41.902227, -87.696676)"
3200,1501 S Lake Shore Dr,2,33,Near South Side,7,41.861112,-87.617772,1,41.861112,-87.617772,"(41.861112, -87.617772)"
4258,10635 S Ewing Ave,10,52,East Side,1,41.702045,-87.535085,1,41.702045,-87.535085,"(41.702045, -87.535085)"
213,130 S Jefferson St,2,28,Near West Side,1,41.880119,-87.642769,0,41.880119,-87.642769,"(41.880119, -87.642769)"
7182,1121 N Ashland Ave,1,24,West Town,1,41.902081,-87.667296,0,41.902081,-87.667296,"(41.902081, -87.667296)"
3265,2200 S Leavitt St,25,31,Lower West Side,1,41.852009,-87.68087,1,41.852009,-87.68087,"(41.852009, -87.68087)"
3995,16 N Wabash Ave,42,32,Loop,1,41.882321,-87.626353,1,41.882321,-87.626353,"(41.882321, -87.626353)"
6523,1312 S Wabash Ave,2,33,Near South Side,1,41.865402,-87.625949,0,41.865402,-87.625949,"(41.865402, -87.625949)"
4487,2100 E 87th St,8,45,Avalon Park,6,41.73715,-87.57319,1,41.73715,-87.57319,"(41.73715, -87.57319)"
3322,1400 S Loomis St,2,28,Near West Side,2,41.863251,-87.66157,1,41.863251,-87.66157,"(41.863251, -87.66157)"
7352,1474 W 115th St,34,75,Morgan Park,1,41.684973,-87.659325,0,41.684973,-87.659325,"(41.684973, -87.659325)"
4388,2210 W 95th St,19,72,Beverly,2,41.721207,-87.677644,1,41.721207,-87.677644,"(41.721207, -87.677644)"
5066,1700 W Harrison St,2,28,Near West Side,0,41.874225,-87.669132,1,41.874225,-87.669132,"(41.874225, -87.669132)"
3186,1800 N Lake Shore Dr,43,7,Lincoln Park,8,41.916996,-87.628673,1,41.916996,-87.628673,"(41.916996, -87.628673)"
4899,1900 W Warner Ave,47,5,North Center,1,41.95706,-87.676657,1,41.95706,-87.676657,"(41.95706, -87.676657)"
1010,1174 E 55th St,4,41,Hyde Park,1,41.795171,-87.59735,0,41.795171,-87.59735,"(41.795171, -87.59735)"
1243,1656 W Division St,1,24,West Town,1,41.903426,-87.669469,0,41.903426,-87.669469,"(41.903426, -87.669469)"
3982,201 N Wabash Ave,42,32,Loop,1,41.885822,-87.626201,1,41.885822,-87.626201,"(41.885822, -87.626201)"
4178,1325 W Wrightwood Ave,32,7,Lincoln Park,2,41.928698,-87.66191,1,41.928698,-87.66191,"(41.928698, -87.66191)"
1553,1710 E 93rd St,8,48,Calumet Heights,1,41.72614,-87.5823,1,41.72614,-87.5823,"(41.72614, -87.5823)"
4853,1800 W Lawrence Ave,47,4,Lincoln Square,1,41.968913,-87.674871,1,41.968913,-87.674871,"(41.968913, -87.674871)"
4823,1407 W Erie St,27,24,West Town,1,41.893281,-87.66269,1,41.893281,-87.66269,"(41.893281, -87.66269)"
5031,2156 W Potomac Ave,32,24,West Town,1,41.905072,-87.681116,1,41.905072,-87.681116,"(41.905072, -87.681116)"
5991,2035 W Taylor St,2,28,Near West Side,2,41.869003,-87.677209,1,41.869003,-87.677209,"(41.869003, -87.677209)"
6033,1652 N Western Ave,1,24,West Town,1,41.91131,-87.68744,1,41.91131,-87.68744,"(41.91131, -87.68744)"
3956,180 W Van Buren St,2,32,Loop,2,41.87699,-87.633369,1,41.87699,-87.633369,"(41.87699, -87.633369)"
7078,212 W Superior St,42,8,Near North Side,2,41.895738,-87.63447,0,41.895738,-87.63447,"(41.895738, -87.63447)"
1554,1309 W 95th St,21,73,Washington Heights,1,41.721109,-87.655776,1,41.721109,-87.655776,"(41.721109, -87.655776)"
1079,1601 W Montrose Ave,47,6,Lake View,1,41.961456,-87.669426,0,41.961456,-87.669426,"(41.961456, -87.669426)"
3054,1800 W Irving Park Rd,47,5,North Center,1,41.954342,-87.674439,1,41.954342,-87.674439,"(41.954342, -87.674439)"
1532,15 W 87th St,21,44,Chatham,6,41.736171,-87.625734,1,41.736171,-87.625734,"(41.736171, -87.625734)"
6465,1500 S Lynn White Dr,2,33,Near South Side,1,41.861735,-87.609595,0,41.861735,-87.609595,"(41.861735, -87.609595)"
4083,1337 N Wells St,43,8,Near North Side,2,41.906867,-87.634403,1,41.906867,-87.634403,"(41.906867, -87.634403)"
866,1401 N Ashland Ave,1,24,West Town,1,41.907065,-87.66751,0,41.907065,-87.66751,"(41.907065, -87.66751)"
5056,1434 W Division St,1,24,West Town,3,41.903521,-87.664025,1,41.903521,-87.664025,"(41.903521, -87.664025)"
2324,1550 W Chicago Ave,1,24,West Town,2,41.896159,-87.666608,1,41.896159,-87.666608,"(41.896159, -87.666608)"
6519,2225 W North Ave,1,24,West Town,1,41.910223,-87.683278,0,41.910223,-87.683278,"(41.910223, -87.683278)"
3014,160 E Illinois St,42,8,Near North Side,2,41.890995,-87.623417,1,41.890995,-87.623417,"(41.890995, -87.623417)"
3132,1559 N LaSalle Dr,42,8,Near North Side,2,41.910233,-87.632931,1,41.910233,-87.632931,"(41.910233, -87.632931)"
5262,1900 S Blue Island Ave,25,31,Lower West Side,2,41.855981,-87.662877,1,41.855981,-87.662877,"(41.855981, -87.662877)"
5161,1119 E 46th St,4,39,Kenwood,4,41.811326,-87.598645,1,41.811326,-87.598645,"(41.811326, -87.598645)"
1487,1758 E 71st St,5,43,South Shore,1,41.765318,-87.581793,1,41.765318,-87.581793,"(41.765318, -87.581793)"
5219,2145 N Damen Ave,32,22,Logan Square,2,41.920353,-87.677531,1,41.920353,-87.677531,"(41.920353, -87.677531)"
4428,120 N LaSalle St,42,32,Loop,3,41.883745,-87.632488,1,41.883745,-87.632488,"(41.883745, -87.632488)"
1497,1613 E 73rd St,8,43,South Shore,2,41.762265,-87.585469,1,41.762265,-87.585469,"(41.762265, -87.585469)"
6632,1457 W Belmont Ave,32,6,Lake View,1,41.939591,-87.665119,0,41.939591,-87.665119,"(41.939591, -87.665119)"
6202,2221 S Lawndale Ave,22,30,South Lawndale,2,41.851144,-87.717225,1,41.851144,-87.717225,"(41.851144, -87.717225)"
5199,2030 W Taylor St,2,28,Near West Side,1,41.869152,-87.677177,1,41.869152,-87.677177,"(41.869152, -87.677177)"
728,1845 N Western Ave,1,22,Logan Square,1,41.915096,-87.687141,0,41.915096,-87.687141,"(41.915096, -87.687141)"
1555,1354 W 95th St,21,73,Washington Heights,1,41.72148,-87.657081,1,41.72148,-87.657081,"(41.72148, -87.657081)"
122,2241 N Western Ave,32,22,Logan Square,1,41.922813,-87.687393,0,41.922813,-87.687393,"(41.922813, -87.687393)"
3202,1200 S Lake Shore Dr,2,33,Near South Side,4,41.86517,-87.615542,1,41.86517,-87.615542,"(41.86517, -87.615542)"
646,1300 N Milwaukee Ave,1,24,West Town,2,41.905272,-87.66957,0,41.905272,-87.66957,"(41.905272, -87.66957)"
4837,1775 W Sunnyside Ave,47,3,Uptown,2,41.963214,-87.673347,1,41.963214,-87.673347,"(41.963214, -87.673347)"
4474,2235 N Sheffield Ave,43,7,Lincoln Park,1,41.922397,-87.653285,1,41.922397,-87.653285,"(41.922397, -87.653285)"
5394,1200 W Granville Ave,48,77,Edgewater,1,41.9947,-87.660571,1,41.9947,-87.660571,"(41.9947, -87.660571)"
3510,22 W Monroe St,42,32,Loop,3,41.880881,-87.628487,1,41.880881,-87.628487,"(41.880881, -87.628487)"
3037,2200 W Irving Park Rd,47,5,North Center,1,41.954176,-87.683764,1,41.954176,-87.683764,"(41.954176, -87.683764)"
5377,1735 N Damen Ave,32,24,West Town,2,41.913366,-87.677394,1,41.913366,-87.677394,"(41.913366, -87.677394)"
1062,1819 W Grand Ave,26,24,West Town,1,41.890775,-87.672622,0,41.890775,-87.672622,"(41.890775, -87.672622)"
4421,1512 N LaSalle Dr,43,8,Near North Side,2,41.909502,-87.63327,1,41.909502,-87.63327,"(41.909502, -87.63327)"
856,10400 S Western Ave,19,72,Beverly,2,41.704366,-87.681733,0,41.704366,-87.681733,"(41.704366, -87.681733)"
6924,2016 W Armitage Ave,32,22,Logan Square,1,41.917859,-87.678561,0,41.917859,-87.678561,"(41.917859, -87.678561)"
5400,100 N Central Ave,29,25,Austin,2,41.882286,-87.76498,1,41.882286,-87.76498,"(41.882286, -87.76498)"
5404,100 N Central Park Ave,28,27,East Garfield Park,6,41.881855,-87.715858,1,41.881855,-87.715858,"(41.881855, -87.715858)"
2182,1870 S Blue Island Ave,25,31,Lower West Side,1,41.856681,-87.662365,1,41.856681,-87.662365,"(41.856681, -87.662365)"
2013,1031 W Albion Ave,49,1,Rogers Park,1,42.002439,-87.657809,1,42.002439,-87.657809,"(42.002439, -87.657809)"
1006,2234 W North Ave,1,24,West Town,1,41.910463,-87.683762,0,41.910463,-87.683762,"(41.910463, -87.683762)"
4352,111 W Jackson Blvd,2,32,Loop,2,41.878022,-87.631087,1,41.878022,-87.631087,"(41.878022, -87.631087)"
970,208 S LaSalle St,42,32,Loop,1,41.879235,-87.632319,0,41.879235,-87.632319,"(41.879235, -87.632319)"
2608,100 W Division St,42,8,Near North Side,6,41.903993,-87.631607,1,41.903993,-87.631607,"(41.903993, -87.631607)"
79,1530 W Montrose Ave,47,3,Uptown,1,41.961749,-87.668251,0,41.961749,-87.668251,"(41.961749, -87.668251)"
6076,1037 W Armitage Ave,32,7,Lincoln Park,2,41.917957,-87.654893,1,41.917957,-87.654893,"(41.917957, -87.654893)"
3215,1450 N Larrabee St,27,8,Near North Side,3,41.907803,-87.643481,1,41.907803,-87.643481,"(41.907803, -87.643481)"
1991,1111 W Addison St,44,6,Lake View,1,41.947036,-87.657547,1,41.947036,-87.657547,"(41.947036, -87.657547)"
4111,10000 S Western Ave,19,72,Beverly,1,41.711666,-87.681963,1,41.711666,-87.681963,"(41.711666, -87.681963)"
409,1916 W North Ave,32,24,West Town,1,41.910638,-87.675706,0,41.910638,-87.675706,"(41.910638, -87.675706)"
2667,211 S Franklin St,2,32,Loop,1,41.879198,-87.635043,1,41.879198,-87.635043,"(41.879198, -87.635043)"
3520,1331 W Monroe St,27,28,Near West Side,1,41.880135,-87.660368,1,41.880135,-87.660368,"(41.880135, -87.660368)"
1527,1051 E 83rd St,8,44,Chatham,1,41.743916,-87.598786,1,41.743916,-87.598786,"(41.743916, -87.598786)"
4819,1415 W Randolph St,27,28,Near West Side,1,41.883907,-87.662873,1,41.883907,-87.662873,"(41.883907, -87.662873)"
2027,1118 W Argyle St,48,3,Uptown,1,41.973377,-87.658147,1,41.973377,-87.658147,"(41.973377, -87.658147)"
6398,1 S Wacker Dr,2,32,Loop,2,41.881868,-87.636676,1,41.881868,-87.636676,"(41.881868, -87.636676)"
5851,1205 N California Ave,26,24,West Town,1,41.903125,-87.696701,1,41.903125,-87.696701,"(41.903125, -87.696701)"
2956,2 N Hamlin Ave,28,26,West Garfield Park,1,41.880833,-87.720797,1,41.880833,-87.720797,"(41.880833, -87.720797)"
785,10327 S Western Ave,19,72,Beverly,1,41.705811,-87.68142,0,41.705811,-87.68142,"(41.705811, -87.68142)"
3886,2128 S St. Louis Ave,24,29,North Lawndale,1,41.85293,-87.712543,1,41.85293,-87.712543,"(41.85293, -87.712543)"
1503,1150 W 78th St,17,71,Auburn Gresham,1,41.752451,-87.652969,1,41.752451,-87.652969,"(41.752451, -87.652969)"
2444,1442 N Cleaver St,1,24,West Town,1,41.907776,-87.664129,1,41.907776,-87.664129,"(41.907776, -87.664129)"
4273,13416 S Baltimore Ave,10,55,Hegewisch,1,41.651419,-87.547321,1,41.651419,-87.547321,"(41.651419, -87.547321)"
6268,1335 W Wrightwood Ave,32,7,Lincoln Park,1,41.928715,-87.662375,1,41.928715,-87.662375,"(41.928715, -87.662375)"
